,address,propertyType,bedrooms,detailUrl,location_lat,location_lng,property_id,index
0,"8, Penrith Avenue, Oldham, Greater Manchester OL8 4LY",Terraced,,https://www.rightmove.co.uk/house-prices/details/england-16270804?s=37d2126504f143a993cadc6f39af6233e537653b357c234a71cf1341cbdc3075,53.52827,-2.12985,604a5403-8115-46a1-aeb9-c9e69df33897,0
1,"4, The Croft, Oldham, Greater Manchester OL8 3AL",Semi-Detached,4.0,https://www.rightmove.co.uk/house-prices/details/england-119827646-17477578?s=96a29c37ebb7476ed30bfb2f1b70b4003f08220cf604fc637211920a0ad67f1f,53.52154,-2.12108,4f739d33-02b7-40c2-9b1f-28330c8c3a6e,1
2,"8, Goddard Street, Oldham, Greater Manchester OL8 1LQ",Terraced,3.0,https://www.rightmove.co.uk/house-prices/details/england-123266510-16270717?s=f76875b424c5331ceda9798839520982dfc992134adc106b9f8d8ab8a4ed822b,53.53144,-2.11296,eef1e86f-e55c-4a9c-ac89-af90da8986f3,2
3,"33, Hive Street, Oldham, Greater Manchester OL8 4QS",Terraced,2.0,https://www.rightmove.co.uk/house-prices/details/england-85538370-16576921?s=fe93d3746b95fa24ca36be071e0d38fc5c09a3c7ea5564c5cadc0075dc8bbcea,53.52242,-2.13858,6cf196a4-9fa3-4af6-909f-78e27234f6cf,3
4,"38, Harper Street, Oldham, Greater Manchester OL8 1BB",Terraced,,https://www.rightmove.co.uk/house-prices/details/england-17142565?s=baad5c4a5382d2f6c48424791f6971935fa11e0496eedde97acb6af878690083,53.53224,-2.11718,05f2db04-7208-472f-bc39-6375e36ab0b1,4
5,"19, Howgill Crescent, Oldham, Greater Manchester OL8 3WA",Terraced,3.0,https://www.rightmove.co.uk/house-prices/details/england-120170891-16270786?s=b9a082f3ceead3a550c000aa0677fbeedc1812465d8d64361c239593ecf807ee,53.52424,-2.11596,d3f195a6-9a0c-43b2-a58f-1d25b86a232c,5
6,"19, Margaret Street, Oldham, Greater Manchester OL8 4SN",Terraced,3.0,https://www.rightmove.co.uk/house-prices/details/england-60514500-16845286?s=8389a65a20b3e26d815b3236012908593ea785584582c41cab39bc0a12345101,53.52098,-2.13721,a3e710d2-7af6-45bd-b599-31a3fad11a16,6
7,"31, Randolph Street, Oldham, Greater Manchester OL8 3SR",Terraced,,https://www.rightmove.co.uk/house-prices/details/england-16270780?s=d41e133ef58b611cef62c417951dd1ba14cc18c583b5d971496260784593c9bd,53.52099,-2.13239,9f2b7b91-36b8-4068-a9c0-5ddbf502cae3,7
8,"21, Schofield Street, Oldham, Greater Manchester OL8 1QJ",Semi-Detached,3.0,https://www.rightmove.co.uk/house-prices/details/england-85538412-16270726?s=9f05b7ef4f2d76209e39c5cb9565a5c6d305be65c6b0579a9561014dc46b8073,53.52766,-2.11461,31b6aa41-f468-4128-9601-9cecdc389731,8
9,"162, Furness Avenue, Oldham, Greater Manchester OL8 2ED",Flat,2.0,https://www.rightmove.co.uk/house-prices/details/england-125069192-17142601?s=38ea90e24fea0991a0cd3eb70006bcfa4c81be1931161a22bd86c05652456633,53.52724,-2.08383,bacc33c6-6d10-4e44-b1e7-6b36b129adbc,9
10,"7, April Close, Oldham, Greater Manchester OL8 2XQ",Semi-Detached,2.0,https://www.rightmove.co.uk/house-prices/details/england-120639242-16270762?s=91decc3638517ad8e0ef8bfbfde679a169572cd6cca7e03d2062bf40d3e68386,53.52813,-2.08791,5787ba1f-6645-4393-b50f-9be26fcf9331,10
11,"100, Pine Tree Road, Oldham, Greater Manchester OL8 3LQ",Semi-Detached,,https://www.rightmove.co.uk/house-prices/details/england-16576870?s=803831d5ad0c7973bc27b9262907bd79e6c939208cfbb65bf55e00081ad1f055,53.51641,-2.12785,b4e34126-47c7-4d04-ba85-252ba4b091e9,11
12,"11, Burder Street, Oldham, Greater Manchester OL8 3SU",Terraced,2.0,https://www.rightmove.co.uk/house-prices/details/england-121781588-15959131?s=e824ca7937b8a37663effc2f73404f6b3984db59fc332522f5b39990fffff0e2,53.52045,-2.13404,438e1af1-c79a-401f-ab4f-04a3543e9400,12
13,"143, Fir Tree Avenue, Oldham, Greater Manchester OL8 2PJ",Terraced,4.0,https://www.rightmove.co.uk/house-prices/details/england-121531298-16270753?s=840a3c871a79fedc45df28e4afbd6016b6b0414dbcbeba4b6c8e9bccda8f0a38,53.52318,-2.10162,a7953a03-4637-4ba8-9214-11b17618894c,13
14,"5, Mulmount Close, Oldham, Greater Manchester OL8 4NA",Semi-Detached,3.0,https://www.rightmove.co.uk/house-prices/details/england-85538373-16270807?s=60f70f87c2b29f6b82c6ce8f95879cdc29333e5f44c2f3184afa69672d6daa44,53.52692,-2.1309,0d1644c6-7fb0-41e9-9a3f-23c6fa2b84b1,14
15,"84, Springwood Hall Road, Oldham, Greater Manchester OL8 2QF",Semi-Detached,3.0,https://www.rightmove.co.uk/house-prices/details/england-121221098-18098845?s=c2d741ac4496bf94c8ee16c94f09a969a226ce44914265693ab34961227225b4,53.51958,-2.10146,2fb10f43-c2f6-4a7d-ac2f-bfaeb9e92460,15
16,"70, Crete Street, Oldham, Greater Manchester OL8 1PQ",Terraced,,https://www.rightmove.co.uk/house-prices/details/england-16270723?s=8f4e65e3e6a36894de6a9d07d3516c5dfe332831f4978a4ec6244859fb500a0b,53.52982,-2.10813,61843900-b742-4c73-bbe0-86e5968735a9,16
17,"11, Clovelly Avenue, Oldham, Greater Manchester OL8 3UW",Terraced,3.0,https://www.rightmove.co.uk/house-prices/details/england-28581544-16270783?s=85d1cd2ba9453bda95b521a2ca8a81653b1780607b9e120b945cbfa36790face,53.52198,-2.13269,03fddc35-8591-44d0-bf9a-b82c2b023a62,17
18,"32, Green Lane, Oldham, Greater Manchester OL8 3AY",Semi-Detached,3.0,https://www.rightmove.co.uk/house-prices/details/england-19369437-17142631?s=b53e10c44eb0a9fc3db9ea2f667e0c69dab515940122f77dd44c7032bae588d4,53.52217,-2.12213,ff6e132f-a251-4a4a-9718-30dc2cc3e248,18
19,"1, Simkin Way, Oldham, Greater Manchester OL8 2TH",Detached,3.0,https://www.rightmove.co.uk/house-prices/details/england-120486641-16845232?s=f0ffc3a9ea8f50b78783d8232c9ec1b1cf306ed3b1555c049413d974c35892e2,53.51652,-2.10538,a70a5218-95a4-40ff-8c13-489428f1988c,19
20,"99, Chapel Road, Oldham, Greater Manchester OL8 4QJ",Terraced,2.0,https://www.rightmove.co.uk/house-prices/details/england-121143242-16270816?s=b2d445248086755c0da285a8d95fbaeb0547aac7010a08f54e0fd5ad8f8a2e3a,53.5226,-2.13526,c4b57536-bd4f-4fb4-a7b8-f212e0b1d1b8,20
21,"10, Link Lane, Oldham, Greater Manchester OL8 3AD",Terraced,3.0,https://www.rightmove.co.uk/house-prices/details/england-85588716-15959098?s=810b38ca5a644367910969111176386ec88c232fd35415bfac31a1a706776285,53.52334,-2.12108,4e4e72bf-2368-4585-9e3a-596a93caa969,21
22,"6, Goddard Street, Oldham, Greater Manchester OL8 1LQ",Terraced,2.0,https://www.rightmove.co.uk/house-prices/details/england-121173989-15959050?s=eb6d0d9271f7700695889b9951612269783f4ae9bc95ac0d384daa83a9c85e17,53.53144,-2.11296,846a4d45-3a37-44cb-b031-c7188c7531c3,22
23,"14, Lyndhurst Road, Oldham, Greater Manchester OL8 4JG",Terraced,,https://www.rightmove.co.uk/house-prices/details/england-15959158?s=f89cc1006cca0b87c77b8d9092016a9ff2d679a9620d4862084a7b7c95a1a044,53.52415,-2.12274,e4b01bc5-6b59-40b6-a3db-9fd28ae5871d,23
24,"271, Chamber Road, Oldham, Greater Manchester OL8 4DW",Semi-Detached,3.0,https://www.rightmove.co.uk/house-prices/details/england-118388807-15959143?s=cb3212c1261fa759864b9c6e2b92465cdb6deb77a8fe2d14ea6d8bc6e5791e49,53.52729,-2.12773,0c98e5ab-fbdb-469c-abac-10ecc5f2f87e,24
25,"880, Ashton Road, Oldham, Greater Manchester OL8 3HT",Terraced,,https://www.rightmove.co.uk/house-prices/details/england-16270777?s=1ddaea730ea034a2a12340f1f21935549b731dff390f75ee7f5270c979e25c86,53.51436,-2.10809,2cacc383-d18f-4c31-bf3f-354bdad11402,25
26,"100, Wolverton Avenue, Oldham, Greater Manchester OL8 4DZ",Terraced,2.0,https://www.rightmove.co.uk/house-prices/details/england-114562124-16576885?s=a142966073a88db3580e90f74e1d828d650ff7cce92e8ed087ad4c7d9e69d890,53.52585,-2.12697,e8da3e63-954c-45ff-b316-c79abe8d09d2,26
27,"10, Brae Side, Oldham, Greater Manchester OL8 3AP",Semi-Detached,2.0,https://www.rightmove.co.uk/house-prices/details/england-84076488-18098857?s=260dd18874c4dd1656eec8f6a9a4b9576acbe1face9b76683c6103bbbda94261,53.52019,-2.12002,a14797d1-a305-4af6-ae60-33a7c402d1d5,27
28,"146, Copster Hill Road, Oldham, Greater Manchester OL8 1QQ",Terraced,,https://www.rightmove.co.uk/house-prices/details/england-17797252?s=0987a60e234bd6dbb4bd3a1a881a76d79a9d81637bc383773eafa472c3c250fa,53.52856,-2.11642,d654708d-02e0-4b72-9e42-5bd3f6dff79c,28
29,"73, Lune Street, Oldham, Greater Manchester OL8 1BS",Terraced,,https://www.rightmove.co.uk/house-prices/details/england-15648313?s=a84581b70cccce3f0b77c51efe7121416bf41a29748df375c361bb4822e490cb,53.52991,-2.11597,7718b3cd-54b5-480c-a9bd-cb42c44c053c,29
30,"129, Belgrave Road, Oldham, Greater Manchester OL8 2JT",Terraced,2.0,https://www.rightmove.co.uk/house-prices/details/england-118476302-15959071?s=70f2d4a12ce76ac8601aa1532ef5fa4a5134dae892adbc247a2285f490886922,53.52893,-2.10345,eac0fb19-dc26-4874-b64d-09101432935f,30
31,"26, Eton Avenue, Oldham, Greater Manchester OL8 4HQ",Terraced,3.0,https://www.rightmove.co.uk/house-prices/details/england-114489188-15959152?s=555eb0c9e115ea322fded8d8b280b32fbc40ee36fc5f6c578691aad490a70387,53.52658,-2.12003,1546218a-b0ef-4e99-8a69-afbe6b881877,31
32,"175, Coppice Street, Oldham, Greater Manchester OL8 4BJ",Terraced,4.0,https://www.rightmove.co.uk/house-prices/details/england-85538454-15648388?s=14732681380a425b94ac7ea2af2808b461713566cdad0ad2d7edd521cef2f0d9,53.53349,-2.12368,9b9987b2-b091-4ba3-b3c6-2416a5a496fc,32
33,"16, Hawthorn Crescent, Oldham, Greater Manchester OL8 2NH",Semi-Detached,2.0,https://www.rightmove.co.uk/house-prices/details/england-122389697-16270750?s=31911b14c123af1fa75eb0bfca47eea4018f114c4e409cb68685f976dc2bc1b2,53.52254,-2.10766,4c34c5f6-3cec-4b37-9fe5-adcaee525111,33
34,"6, Belgrave Avenue, Oldham, Greater Manchester OL8 2LA",Semi-Detached,4.0,https://www.rightmove.co.uk/house-prices/details/england-117833117-15959074?s=c26f38e7094ca170277fd6b5a46bb21baf39c0e320784bd82a41c4b9c7d08348,53.52848,-2.10496,8e4c3765-6d63-42f5-86a2-c8b594aba66c,34
35,"12, Werneth Crescent, Oldham, Greater Manchester OL8 4LT",Terraced,2.0,https://www.rightmove.co.uk/house-prices/details/england-85538403-17797336?s=6d2ef6cf4a470b75808db92dccdfd3f33012f48e92cd2d871447707d7af0b40c,53.52899,-2.13226,f49a0b39-89e1-4982-9cab-786b0a1fa14b,35
36,"8, Kingsbridge Road, Oldham, Greater Manchester OL8 2BT",Terraced,2.0,https://www.rightmove.co.uk/house-prices/details/england-69833561-15648328?s=acd0a0f757e53532ae71aa47e4a43f4625c7e793b14398c64421a71712822be5,53.53343,-2.09773,b308a869-8bef-4aee-b2a4-956501922e68,36
37,"39, Kenyon Avenue, Oldham, Greater Manchester OL8 1NP",Terraced,2.0,https://www.rightmove.co.uk/house-prices/details/england-122172272-15959056?s=32b640762e6f5942e88429cae262d71d17c066c321e96c61d9a715eaf70cd6a7,53.52713,-2.10902,05d3e650-bfdd-4a7f-843e-b0e3f0413ed2,37
38,"1, Hathershaw Lane, Oldham, Greater Manchester OL8 3EU",Terraced,,https://www.rightmove.co.uk/house-prices/details/england-17477593?s=15fea0e2a540641160d4aa3cde7d6392f1867cc3788d638ad4985754f07cdf07,53.52416,-2.11249,e0bc6d76-4af8-452a-9d45-a587b35ed284,38
39,"6, Withins Road, Oldham, Greater Manchester OL8 3QD",Terraced,3.0,https://www.rightmove.co.uk/house-prices/details/england-121628633-16576873?s=f0045defd4923e24d8dac015cd3504e188230be5403b354590bbd0c8336c4cbc,53.51927,-2.13962,82bcfc62-4367-4c03-8506-ba30795ddd6e,39
40,"81, Montgomery Street, Oldham, Greater Manchester OL8 3PR",Semi-Detached,2.0,https://www.rightmove.co.uk/house-prices/details/england-36878669-17142658?s=939bee276a9efe34649401e3795f8b18a018aab00e781e010d660e8e054a75ba,53.51883,-2.13826,27477ce1-c51e-4198-b30c-24cbc4f675ea,40
41,"10, Wellington Road, Oldham, Greater Manchester OL8 1RU",Terraced,2.0,https://www.rightmove.co.uk/house-prices/details/england-18746033-17142586?s=e14526fe41765b0319a57fca2c92bff78e56e22b674b0e5ef2ce3b12cb19d3a6,53.53404,-2.12006,064eff5a-aea3-453c-a59a-1879ba4c8028,41
42,"315, Frederick Street, Oldham, Greater Manchester OL8 4HG",Semi-Detached,5.0,https://www.rightmove.co.uk/house-prices/details/england-115798445-15959146?s=44ffbf2008295c18a7a2f4eff860cb8782c4f98131c1e6da58a6efe2a290ce77,53.52631,-2.12109,33ad3610-7bfc-40a9-b698-36d1bf3fded2,42
43,"52, Wellington Road, Oldham, Greater Manchester OL8 1RT",Terraced,,https://www.rightmove.co.uk/house-prices/details/england-16576804?s=9b051c35f82e0043272183869c62bfcd34317f4236c583f50429d261af0881e3,53.53385,-2.12156,c4acc1b3-64a9-4788-bdd5-da97b435eacb,43
44,"12, Stratford Avenue, Oldham, Greater Manchester OL8 3DR",Semi-Detached,3.0,https://www.rightmove.co.uk/house-prices/details/england-85538427-17797288?s=9f472f2488806f9fde7f03b4c3f854253b2996060f46988af0ccd6b7abe8fcf3,53.52613,-2.11445,0d652068-0d59-4ab3-8a81-77255e02a588,44
45,"27, Mulmount Close, Oldham, Greater Manchester OL8 4NA",Terraced,3.0,https://www.rightmove.co.uk/house-prices/details/england-124426877-17142706?s=52e4f263f33e3d039be0878593d241ba07b7c86c8bb35e5418f23d3e479f0433,53.52692,-2.1309,b8862abc-9eb6-45a7-8566-f54e408b713b,45
46,"10, Cardigan Road, Oldham, Greater Manchester OL8 4SF",Terraced,3.0,https://www.rightmove.co.uk/house-prices/details/england-25448248-15959173?s=dbba120a65cf5117f25cddbda60f7998e966ab21c099329f4fad838c7349a586,53.52062,-2.14174,560d9011-25c5-4d49-b08b-f78a4aec1f96,46
47,"4, Foxton Close, Oldham, Greater Manchester OL8 2SX",Terraced,,https://www.rightmove.co.uk/house-prices/details/england-15648340?s=f55d8973b00296f7294842c813fa89929a27cae0762fc3224c8106416b5c0188,53.5176,-2.10312,00696d1a-de65-447f-b35d-e15fcd2e3963,47
48,"10, Jenny Street, Oldham, Greater Manchester OL8 4QN",Semi-Detached,3.0,https://www.rightmove.co.uk/house-prices/details/england-85538358-16576915?s=7df218d4d2f7a917cad5c100a1621b91422d6473b96017a190ec07f02d68abed,53.52117,-2.13586,bbd9bad8-875e-472f-9c33-23d561de11d8,48
49,"6, Tiber Avenue, Oldham, Greater Manchester OL8 3LZ",Semi-Detached,3.0,https://www.rightmove.co.uk/house-prices/details/england-122548172-15648373?s=872aa7455ee408e8ed0b8799561b38a3450e38d6e7fb019d00fc4a161729a0f4,53.51847,-2.13343,355fbc85-5416-427e-a351-b3546facb69d,49
50,"4, Rowan Tree Road, Oldham, Greater Manchester OL8 3LG",Semi-Detached,3.0,https://www.rightmove.co.uk/house-prices/details/england-64542928-15648370?s=c2090443216ed52d82f3beb04c0b42f5096f025752c447ac7003d50bc184cd3d,53.51587,-2.12709,2ab97453-7a4e-4cc4-a794-33a21121d04b,50
51,"39, Schofield Street, Oldham, Greater Manchester OL8 1QJ",Semi-Detached,,https://www.rightmove.co.uk/house-prices/details/england-15959059?s=773d702bf07f7b68a8b2f3a2acfe8b6a12554eeaeb655716190d641ecdb6e791,53.52766,-2.11461,fb668bf3-1fc7-4f94-ab04-3bc89a8baca5,51
52,"26, Hathershaw Lane, Oldham, Greater Manchester OL8 3EX",Terraced,2.0,https://www.rightmove.co.uk/house-prices/details/england-114388397-15648361?s=59ad2b3a6b4352208449e40d14731bdb3adc3df162179de370f8d88f211faffc,53.52434,-2.11203,c034924f-7e16-4832-bf82-d3ed14b4baef,52
53,"70, Fourth Avenue, Oldham, Greater Manchester OL8 3RZ",Terraced,2.0,https://www.rightmove.co.uk/house-prices/details/england-116394254-15959122?s=7f1c63f628928921a373e4ad8b2f420d060b70178cc9adb916c0db6f436d37c7,53.51731,-2.13041,0ef9f06b-59dd-496f-bdee-5717aa387dc3,53
54,"52, Farm Road, Oldham, Greater Manchester OL8 3NW",Semi-Detached,2.0,https://www.rightmove.co.uk/house-prices/details/england-106246850-15648376?s=fa6b960388eb03d0ed8f481cb89a9fd95371bd7236d9fd191c7e8fb636e6df98,53.51065,-2.1319,ff90249a-5924-48fc-b8f0-62442d7f3e76,54
55,"22, Greenhurst Crescent, Oldham, Greater Manchester OL8 2QQ",Semi-Detached,,https://www.rightmove.co.uk/house-prices/details/england-15959095?s=beea79bcd7dcb72e0160ad439708ac97f43e14aa20d36a93b4a2de3743570957,53.51931,-2.10388,02597c6c-deb2-4995-bce4-11a368bcbcbf,55
56,"190, Frederick Street, Oldham, Greater Manchester OL8 4DH",Terraced,5.0,https://www.rightmove.co.uk/house-prices/details/england-116133200-15347065?s=e05ffb9341644c5f532c61831f08a8f586230c20e4cac2585dcb75a6dcb8d12f,53.5299,-2.12548,36e731e4-6065-41b2-add0-b46b5ba7c380,56
57,"284, Hollins Road, Oldham, Greater Manchester OL8 3BJ",Terraced,3.0,https://www.rightmove.co.uk/house-prices/details/england-119499107-15648355?s=4110dc5b5a478c785868d6680b24143d345889b0039f573b724a0290fad52817,53.5246,-2.12093,37947234-e972-4c25-a20b-822d2d126098,57
58,"26, Levington Drive, Oldham, Greater Manchester OL8 2TN",Terraced,2.0,https://www.rightmove.co.uk/house-prices/details/england-120741092-15648343?s=b32e64dd091db37ac2e68b30e9ce552b25959f527d87b606e9ba20d27976fbbc,53.51257,-2.10522,e4355adb-7020-4521-b1e0-2bb23d6da140,58
59,"7, Lune Street, Oldham, Greater Manchester OL8 1BP",Terraced,2.0,https://www.rightmove.co.uk/house-prices/details/england-117132530-15346957?s=5a6a2560644faef85fe738b37d62c94a75e9f6c85194ec45ff076a4872de13fc,53.53072,-2.11552,7e2b5ee1-73ec-42ba-8527-de1d6f0b28c3,59
60,"42, Merton Avenue, Oldham, Greater Manchester OL8 4JE",Terraced,3.0,https://www.rightmove.co.uk/house-prices/details/england-119279687-15648412?s=ac6bc9b6894f82c54c5a6b4b079198ce3a33352ea919a41a35c57a8dd25fa162,53.52459,-2.12531,cd6d90f5-dc78-4286-b247-94096b977ef6,60
61,"47, Meldrum Street, Oldham, Greater Manchester OL8 1LX",Terraced,,https://www.rightmove.co.uk/house-prices/details/england-17142571?s=1795444d67b7d6283e45775dd526fe1bce7535fda21d18205e26af207a57ba03,53.53081,-2.10888,53c40110-d510-409b-9cd5-b847cd67b8b9,61
62,"7, Hillcroft, Oldham, Greater Manchester OL8 2UA",Terraced,,https://www.rightmove.co.uk/house-prices/details/england-15648346?s=653275cf9fe0215dfc95be0fb0b017a0ca8fb475f24958dcca3d1ae3532387c2,53.51473,-2.10387,88103f18-374a-4e40-a555-c781fc84aad1,62
63,"19, Alton Street, Oldham, Greater Manchester OL8 3EY",Terraced,,https://www.rightmove.co.uk/house-prices/details/england-15347026?s=f833d8a9d38e0c301827e8a206828dd6f7959af991902bf5cc69adc2cec891a9,53.52443,-2.11188,dc5bed15-09c5-4e35-9e9b-68a7c8ddb35f,63
64,"918, Ashton Road, Oldham, Greater Manchester OL8 3HT",Semi-Detached,3.0,https://www.rightmove.co.uk/house-prices/details/england-120366596-16576861?s=6f4318e1ec357fc5b7d862cdb1464cbc34d47d8c81ad976e0159437e6115d36c,53.51436,-2.10809,07d75b07-2776-49eb-ab8b-e6a544441bbb,64
65,"9, Eton Avenue, Oldham, Greater Manchester OL8 4HQ",Terraced,3.0,https://www.rightmove.co.uk/house-prices/details/england-120507110-17477617?s=0cf086da4d170342ccea7920004d9494c42aa06d8ccef01d0dd81c00bce97541,53.52658,-2.12003,1878001a-89ac-409e-a3f0-f18faf1d9de1,65
66,"106, Schofield Street, Oldham, Greater Manchester OL8 1QJ",Terraced,2.0,https://www.rightmove.co.uk/house-prices/details/england-117966080-15648319?s=7fa8f00be78ab096226f6ef11429d6bf5311cb6e18e6d935196d22c18198431a,53.52766,-2.11461,f52063fb-d931-4c90-8a0e-5f6cc730eaa5,66
67,"266, Copster Hill Road, Oldham, Greater Manchester OL8 3DE",Terraced,2.0,https://www.rightmove.co.uk/house-prices/details/england-29662691-15959104?s=b678269f0c8a57a9ed5b0400bad79b7ce69b86bb5512103093dd6902cf73d417,53.52613,-2.11717,5932ac20-6437-4701-b94a-f3a999a68ee4,67
68,"751, Ashton Road, Oldham, Greater Manchester OL8 2RG",Terraced,,https://www.rightmove.co.uk/house-prices/details/england-16270756?s=659036edd1a84498b6f7146a3dfc9d5223d68286e13b9edda036d1809897e6a3,53.51796,-2.1084,c7546ced-781d-43e7-9672-626cc25278f1,68
69,"23, North Gate, Oldham, Greater Manchester OL8 3AE",Semi-Detached,2.0,https://www.rightmove.co.uk/house-prices/details/england-116403206-17797279?s=2ec5df4c1eca031a63da3c8e614f950c637bad7a432ec4b97eb255a4aab55264,53.52307,-2.11987,b89d00a4-8ba0-4c35-b42c-bc6492fb40a5,69
70,"57, Rowan Tree Road, Oldham, Greater Manchester OL8 3LG",Semi-Detached,,https://www.rightmove.co.uk/house-prices/details/england-16576867?s=b0ff47fced1d575749a98f0529cc2da357e460f2141ab4e77b94fab86f4d5dd1,53.51587,-2.12709,b8e930a0-8217-4b97-bb50-2319a60757de,70
71,"33, Oak Road, Oldham, Greater Manchester OL8 3UH",Detached,2.0,https://www.rightmove.co.uk/house-prices/details/england-8490687-15347053?s=4836b8884df361bf7fa1e766b98334bb3c9cfdf70dbdf6b8e8a8d67757fbf7f8,53.52108,-2.13103,973fdf96-329d-4910-b336-a20bad7317e5,71
72,"263, Frederick Street, Oldham, Greater Manchester OL8 4HX",Terraced,4.0,https://www.rightmove.co.uk/house-prices/details/england-117923237-16576900?s=6fe37778b1821720882ee88b5231661236ce83ad44bdfc87e27c2e2920e44795,53.52774,-2.122,48bffc8d-cc77-4270-9e16-1f12e9ce610c,72
73,"31, Howgill Crescent, Oldham, Greater Manchester OL8 3WA",Semi-Detached,,https://www.rightmove.co.uk/house-prices/details/england-15347059?s=0a423397302e39f15a3634630897bb9dbc2a51857c1c93d26f112fbad51c4807,53.52424,-2.11596,7e7e8242-79c0-4f7a-9aa4-20227936be44,73
74,"106, Merton Avenue, Oldham, Greater Manchester OL8 4JF",Semi-Detached,3.0,https://www.rightmove.co.uk/house-prices/details/england-116529065-16270795?s=1b27fddf6199c2e30d28d0dd2aa144c6235fb3ef1e2e0209927f5a9127c35303,53.52594,-2.12335,341d4dee-b9ce-421d-b9d7-b8dae8e72a8e,74
75,"35, Harper Street, Oldham, Greater Manchester OL8 1BB",Terraced,,https://www.rightmove.co.uk/house-prices/details/england-15346954?s=795d5b72f70acceb9d003cbb698c1e72b1db179c1d2ae95f08c3480a17062245,53.53224,-2.11718,c0387ddf-f2c4-4a04-b473-3bf44e9385da,75
76,"3, Kimberley Street, Oldham, Greater Manchester OL8 4NY",Terraced,3.0,https://www.rightmove.co.uk/house-prices/details/england-19327673-16270810?s=a53fa56631b6426af29aa70b373e2f0d5f81cefef7476d0ac246b3570e8247c7,53.52593,-2.1315,de0fe355-6886-441f-a783-3b830030081f,76
77,"218, Copster Hill Road, Oldham, Greater Manchester OL8 3DD",Terraced,2.0,https://www.rightmove.co.uk/house-prices/details/england-83608101-16270765?s=46ef8c467323e43c8f0f65e87b318f54c125d8fcce25da4db29f74705aa678f5,53.5273,-2.11717,1abd6e44-dad0-496e-a9c0-2c63f79c0e67,77
78,"3, Crossways, Oldham, Greater Manchester OL8 2SQ",Terraced,3.0,https://www.rightmove.co.uk/house-prices/details/england-41834533-15044947?s=b89a5e830ddac1eaa5ce50819a57b8fa4d4793c12a7a83b61459ec157fdfd5a0,53.51904,-2.10584,e8782b74-e000-4cf3-8a87-0a1f6f433f5b,78
79,"26, Forest Street, Oldham, Greater Manchester OL8 3ER",Terraced,2.0,https://www.rightmove.co.uk/house-prices/details/england-117466298-15044962?s=d3cdff9f523adbfbe2087fb6a8fb7edb51f9c84a2788245680461d73361543e6,53.52353,-2.11113,934961cd-14c9-4ef1-ba44-fd04b3d3c733,79
80,"35, Burlington Avenue, Oldham, Greater Manchester OL8 1AP",Semi-Detached,2.0,https://www.rightmove.co.uk/house-prices/details/england-12975924-15346951?s=39bcbd833d5de7f0dff7b492beebdeee00460a388bfcd2cd97955b2fb55905c6,53.53071,-2.12035,9322dec3-9a0b-403d-83de-c92d5abe378d,80
81,"557, Ashton Road, Oldham, Greater Manchester OL8 2NF",Terraced,,https://www.rightmove.co.uk/house-prices/details/england-15044929?s=94c4fb0a4aef6ff2d26d24f6bea2acb7a4bef74a2200086e5867f9d25b4a1823,53.52209,-2.10992,272db18e-5473-48df-85d5-b7df0824fc9e,81
82,"575, Ashton Road, Oldham, Greater Manchester OL8 2NF",Terraced,,https://www.rightmove.co.uk/house-prices/details/england-15959083?s=d629d53195dc6a922c0ee9f01b12367b664ef1df9e23022e6b5ea30e1ae3c0cf,53.52209,-2.10992,3e7c2887-6952-42e7-be74-a794999ef022,82
83,"15, Titchfield Road, Oldham, Greater Manchester OL8 2DW",Terraced,2.0,https://www.rightmove.co.uk/house-prices/details/england-85470480-15346984?s=e1f191565b81891a6e84f8cefe09ac21a35c61359f6b8342a1fce26c441d7669,53.52894,-2.08866,9ea54c78-8537-4300-a71c-6cabb3414571,83
84,"123, Ninth Avenue, Oldham, Greater Manchester OL8 3LS",Terraced,,https://www.rightmove.co.uk/house-prices/details/england-15347035?s=d1c21196d6f592d990f8e3912d2089668619a5d16c277e12ca6d5a4848cfcfd5,53.51677,-2.1283,b07756b9-b58d-4b7a-9d9d-d9483e3d91b4,84
85,"44, Schofield Street, Oldham, Greater Manchester OL8 1QJ",Terraced,2.0,https://www.rightmove.co.uk/house-prices/details/england-119294639-15346969?s=fbcfb696db94ae1b03d1a4776f23165689545a6bb377bca7ebb02f980f29dc42,53.52766,-2.11461,4f4ec4b6-c622-42cc-b723-ff1340c238d3,85
86,"58, Montgomery Street, Oldham, Greater Manchester OL8 3QA",Detached,3.0,https://www.rightmove.co.uk/house-prices/details/england-114604034-15347050?s=bcb5ba7a5b520ae0938370436363d40298428660de47abd6ebfa731ac0eda5f3,53.51865,-2.13871,94b5c031-a52a-4341-b196-50bd36054f91,86
87,"7, Alders Court, Oldham, Greater Manchester OL8 2UB",Terraced,1.0,https://www.rightmove.co.uk/house-prices/details/england-110278007-17477575?s=24028bc2c0f839429100d6ccfead8a5f0a94bad91d73930fb32cd43084b9d701,53.51428,-2.10341,dc15ab5f-e9db-411f-a6e4-130b49c8f0c6,87
88,"106, Napier Street East, Oldham, Greater Manchester OL8 1TS",Terraced,,https://www.rightmove.co.uk/house-prices/details/england-15044911?s=1f6c8f044d6154b5194b42b0a9b17011b8cc42ad99c5b0204d048bf4b677816a,53.53619,-2.12595,3ba04637-8175-44c8-b7f8-b44a56dddf85,88
89,"79, Wildbrook Crescent, Oldham, Greater Manchester OL8 2NP",Semi-Detached,3.0,https://www.rightmove.co.uk/house-prices/details/england-115372967-15347011?s=6037a23db38903cf2da90f9d7f125b3b20f2c42479612059c73ca4aa2bfb0458,53.52273,-2.10343,d949af60-5ede-4594-a349-77dbcbc8daf7,89
90,"40, Middle Gate, Oldham, Greater Manchester OL8 3AG",Semi-Detached,3.0,https://www.rightmove.co.uk/house-prices/details/england-19850961-15347020?s=c6fff262800ac5d2ec9133816d1eedafaa974d8461a0255a499b5ca4c8acb720,53.52047,-2.11851,02c7acb8-00da-4cc0-80b9-81fa5a9d9fe6,90
91,"4, Marion Street, Oldham, Greater Manchester OL8 2AW",Terraced,3.0,https://www.rightmove.co.uk/house-prices/details/england-84741987-15346981?s=73a4fc2b56515aa1855cbd8a0d747f9c2bc5b188f0e43cc699741da0f40b278d,53.52659,-2.11023,b551d6f2-fe01-4e64-8655-f2a3ce733534,91
92,"459, Roman Road, Oldham, Greater Manchester OL8 3LU",Semi-Detached,3.0,https://www.rightmove.co.uk/house-prices/details/england-116567996-15347041?s=d6bc29db7c495fabb52dba636d160f9ab27ac6c96d8674ba814f50fb07fc0ec1,53.51784,-2.13404,72526868-9a92-4f6e-a2a4-531ea41208cb,92
93,"5, North Croft, Oldham, Greater Manchester OL8 2LG",Semi-Detached,3.0,https://www.rightmove.co.uk/house-prices/details/england-112009874-16270744?s=45e7c0d94c01781450b41ed2c7013ff220b7c09e513d4fb8bf666953899f1153,53.52552,-2.09922,64bda88b-b0ff-4e2e-b8cb-2dcbd00f69a5,93
94,"37, Ewood, Oldham, Greater Manchester OL8 2TT",Terraced,3.0,https://www.rightmove.co.uk/house-prices/details/england-116600714-15347017?s=8bb73ea029d4fba1a5ebfb5854f0939d51658e4ceb31a6872cf9c92049719ce3,53.51464,-2.10537,177de295-378a-48b3-8454-d5e3103e1ccb,94
95,"9, Enfield Avenue, Oldham, Greater Manchester OL8 3DW",Semi-Detached,3.0,https://www.rightmove.co.uk/house-prices/details/england-116652617-15044956?s=3cf8efc58580e5e993fd0f9aa16b67d3d66efefdbceb5b8db5a57f8dd70f013f,53.52658,-2.11536,cfa98c88-2e7c-4709-a688-f160e8236984,95
96,"95, Netherhey Street, Oldham, Greater Manchester OL8 2JD",Terraced,2.0,https://www.rightmove.co.uk/house-prices/details/england-108754571-16576819?s=1ec580bfb6693e3b9d5d630ca692a7f9c12bf0fe5d89c55aee2f360629b211cb,53.53136,-2.09319,1fc29de4-d8bc-4298-894a-bfacd8a170e9,96
97,"40, Wallace Street, Oldham, Greater Manchester OL8 1NB",Terraced,,https://www.rightmove.co.uk/house-prices/details/england-15346966?s=6b9b3481ba8f12b179f71c33c2e801a0139bbeb97adb5eece8b6f68bf484f2c1,53.52982,-2.11145,97b42ac0-002f-4cb6-9f3b-41b8188c9216,97
98,"18, Marion Street, Oldham, Greater Manchester OL8 2AW",Terraced,2.0,https://www.rightmove.co.uk/house-prices/details/england-38176052-15346978?s=f70820ee1d4731b652c6c183a08fea410ff1e6917098e61bfb8251f9de08c8a7,53.52659,-2.11023,e486419b-8fa6-4376-8df4-6d8071f27776,98
99,"47, Lune Street, Oldham, Greater Manchester OL8 1BS",Terraced,,https://www.rightmove.co.uk/house-prices/details/england-15044884?s=c634d88fafb7b6fccd0077af01fbba9a00fd823109b8e23d230b1eca9674ba85,53.52991,-2.11597,61c1619b-cb89-48a4-9515-c7bf1dcd13ba,99
100,"27, Stratford Avenue, Oldham, Greater Manchester OL8 3DR",Detached,3.0,https://www.rightmove.co.uk/house-prices/details/england-120052520-16576846?s=a65283949410519a8d3d0fb0a8dc7cf5c568a22baf14d57457adcf55fd683a62,53.52613,-2.11445,5b59cbbb-9add-41e1-be18-620455b2da72,100
101,"Flat 175, Heywood House, Eldon Street Estate, Oldham, Greater Manchester OL8 1UL",Flat,2.0,https://www.rightmove.co.uk/house-prices/details/england-115414910-15346975?s=f1fd9278e18400c52c702c8968476b67461331a015c99bf40b694de5e07f622c,53.53548,-2.11357,bf1e5ee8-da47-4634-9c8a-b42728ecbb33,101
102,"62, Incline Road, Oldham, Greater Manchester OL8 4QW",Terraced,2.0,https://www.rightmove.co.uk/house-prices/details/england-115433606-17142718?s=681a3eb3367dc4765b8c3af640ca7f9fa3c8c98b0df5a6c4317325fe9a5eee96,53.52134,-2.13676,256eeec9-2e8b-458c-8f71-856701359646,102
103,"748, Hollins Road, Oldham, Greater Manchester OL8 4SA",Terraced,2.0,https://www.rightmove.co.uk/house-prices/details/england-115509569-15347080?s=2b8934722489bad0a98df44d416ca1f7d0b745b33023f5076a710d934c571901,53.52054,-2.13616,dab127c3-6445-4b97-8336-bd394f0626f4,103
104,"820, Hollins Road, Oldham, Greater Manchester OL8 4SA",Terraced,2.0,https://www.rightmove.co.uk/house-prices/details/england-21165388-15347077?s=874dd11826bc6fd6fd396c169e2fa77f223aba23066a4d728036f98930ec129b,53.52054,-2.13616,a06781a0-2ff7-496d-b804-25d703f5b076,104
105,"33, Werneth Crescent, Oldham, Greater Manchester OL8 4LT",Semi-Detached,3.0,https://www.rightmove.co.uk/house-prices/details/england-87678455-15045001?s=c1e84e0a1e96f550d8ee868c303e51dcdb0042427b0884b79198a0021038ea66,53.52899,-2.13226,f15bd157-37a2-4c5f-bf68-8dd525e3f54a,105
106,"16, Snowden Street, Oldham, Greater Manchester OL8 1LE",Terraced,2.0,https://www.rightmove.co.uk/house-prices/details/england-24700502-15044890?s=38d2e97696f07746efbb6c30b68eebd0a43216192bf0f32755384328c8a327e9,53.53171,-2.11356,4c2e984c-05c2-4a58-9e24-1edba773a057,106
107,"37, Howgill Crescent, Oldham, Greater Manchester OL8 3WA",Semi-Detached,3.0,https://www.rightmove.co.uk/house-prices/details/england-79525224-15959137?s=b2a01a969bfad4c02c962035284f7262ba6c687e3acd3bc512cedc5131bf5aaf,53.52424,-2.11596,54da3da0-e748-4081-a6bb-5a1c3984bbad,107
108,"12, Bowbank Close, Oldham, Greater Manchester OL8 2SU",Terraced,,https://www.rightmove.co.uk/house-prices/details/england-15044950?s=46a818cc17e800218c6fbabfdfb71792b59a408745d7db2bfc792b43aef48c96,53.5185,-2.10116,868fd5b1-d6cf-430e-9aed-322ca9cad84f,108
109,"30, Carnarvon Street, Oldham, Greater Manchester OL8 3PW",Terraced,,https://www.rightmove.co.uk/house-prices/details/england-15044974?s=2aeaf262679c492505d25eee7797e0baaede9c55d3fcc69055d1f72144878afa,53.51928,-2.13796,a02664b9-c10a-440d-937e-6ed4b191ea81,109
110,"38, Moorwood Drive, Oldham, Greater Manchester OL8 2XD",Terraced,2.0,https://www.rightmove.co.uk/house-prices/details/england-32864611-16270759?s=1593f25bf8b71129c74952ceb50982494dce4488248e228ffd20fb407b797138,53.52948,-2.09032,d2bea968-e02b-4815-836d-40c57a53d67a,110
111,"12, Kimberley Street, Oldham, Greater Manchester OL8 4NY",Terraced,2.0,https://www.rightmove.co.uk/house-prices/details/england-110920112-15347074?s=d025a8c0280b56311d6084a7432db6df9883c2307a79ec6d8135a99c672aaade,53.52593,-2.1315,67f573d7-6a09-4607-80c3-0479dde153b8,111
112,"3, The Stables, Frederick Street, Oldham, Greater Manchester OL8 4DA",Semi-Detached,,https://www.rightmove.co.uk/house-prices/details/england-93060873?s=c5f413dca6b5cc25d405316504f613f5bfb0255a6d951c10197551a2646f6923,53.5307,-2.12638,cf9ad8a4-bb89-4948-af29-0cf0c7b8aa9f,112
113,"76, Honeywell Lane, Oldham, Greater Manchester OL8 2AA",Terraced,2.0,https://www.rightmove.co.uk/house-prices/details/england-29573344-93060798?s=c2791def25557bc3b3592177820b19758945c89b119c2b0a37394ceaebec2f00,53.5273,-2.10978,227a266b-daf7-4e43-80f8-749c6d981d02,113
114,"206, Heron Street, Oldham, Greater Manchester OL8 4NB",Terraced,,https://www.rightmove.co.uk/house-prices/details/england-15959161?s=a90e4318723106dfb56102ca9df45593cfb9d9e46da48759c36c09b330f6dfa5,53.52585,-2.12833,7797b928-4678-4ff5-8c6a-28275a7bfbc8,114
115,"25, Milford Avenue, Oldham, Greater Manchester OL8 3UP",Semi-Detached,2.0,https://www.rightmove.co.uk/house-prices/details/england-117919421-93060864?s=3e51a274e7d1619c1cbadd028fd1e951912f54647fcfea45b3ead9ff3fe5cec1,53.52153,-2.13329,78563b02-904f-41f7-81b7-9782030fe20c,115
116,"14, Enfield Avenue, Oldham, Greater Manchester OL8 3DW",Semi-Detached,3.0,https://www.rightmove.co.uk/house-prices/details/england-113490035-15959107?s=a1c546627f0edd2b501848d181cc089832f1a03544cf763dad4dfea28c226895,53.52658,-2.11536,95a8a51e-5c30-4e36-877f-d048381ad257,116
117,"33, Forest Street, Oldham, Greater Manchester OL8 3ER",Terraced,3.0,https://www.rightmove.co.uk/house-prices/details/england-115172768-15044959?s=c05f948ac2b4de50a888ca08adb3707081b25fbfd2fb76c36edfabcf6fdb2228,53.52353,-2.11113,b48f001e-5c78-4dd1-929e-ce80e40863c7,117
118,"9, Edith Street, Oldham, Greater Manchester OL8 2AL",Terraced,,https://www.rightmove.co.uk/house-prices/details/england-16270732?s=7b42494fa3849825a5d6e4a782e86ec47d793c680c2518dd7e6a8c4523e1c260,53.5256,-2.11053,abeea959-9083-4b08-ab26-071a00a6851d,118
119,"73, Villa Road, Oldham, Greater Manchester OL8 1PW",Terraced,,https://www.rightmove.co.uk/house-prices/details/england-15044905?s=d7c4b1125a3a15344c69f01184165862f9f0e4b21fa8723290f6f54ff171608a,53.53,-2.10979,1a1efa68-5e9b-4488-b128-64b39f1866b8,119
120,"91, Gainsborough Avenue, Oldham, Greater Manchester OL8 1AJ",Terraced,,https://www.rightmove.co.uk/house-prices/details/england-15959044?s=4c91e5d4cd6e4d807b31712d782c62a827b395cf23e67661e521909502711484,53.52954,-2.11989,96c39465-3c49-4aee-8ad8-1baf0dbb3fc7,120
121,"306, Abbey Hills Road, Oldham, Greater Manchester OL8 2DH",Terraced,2.0,https://www.rightmove.co.uk/house-prices/details/england-113987618-93060804?s=75b87aa271ab99aaa30af00bfce9adff612a5074150affc95a6ad3f99490b4ae,53.52966,-2.08761,169c61eb-5edc-4f63-8b53-ebeb51c1443f,121
122,"5, Keble Avenue, Oldham, Greater Manchester OL8 4HN",Semi-Detached,3.0,https://www.rightmove.co.uk/house-prices/details/england-114061745-15959149?s=c491f546b445baa1a12116cae00c5f896ef17b875480e28014b70005d6a24107,53.52783,-2.12019,15a609fd-0c43-4e81-bf01-b02256269dce,122
123,"649, Ashton Road, Oldham, Greater Manchester OL8 2RA",Terraced,2.0,https://www.rightmove.co.uk/house-prices/details/england-117045422-15347014?s=1622b8f06dff11d1e647e77b6acc5c4fb455f00053ac8380df992669f800b108,53.52038,-2.10946,ba6908a9-5061-4f4c-b30e-ac50802745e4,123
124,"80, Gainsborough Avenue, Oldham, Greater Manchester OL8 1AJ",Terraced,,https://www.rightmove.co.uk/house-prices/details/england-93060780?s=b3cedde383c82c667b607fe85c60bf6d43e78a8dc36d2a30d4348402620d9e3d,53.52954,-2.11989,8cfb6dea-bab8-4e72-9e0b-e0458f2bade5,124
