,address,propertyType,bedrooms,detailUrl,location_lat,location_lng,property_id,index
0,"31, Broad Way, Upper Heyford, Bicester, Oxfordshire OX25 5AD",Semi-Detached,,https://www.rightmove.co.uk/house-prices/details/england-16272913?s=032d22a0c2a2ef8e829e77a9a1380033938d659dc226e53bc8efa079e85ac058,51.92806,-1.26379,b452d348-3a8c-4cc2-a323-501adb765741,0
1,"23, Trenchard Circle, Upper Heyford, Bicester, Oxfordshire OX25 5TB",Semi-Detached,,https://www.rightmove.co.uk/house-prices/details/england-17799625?s=f429a6a163957124f7848fc828a2a575bd71d7eee7e58c1e82c8bf4248dad5d8,51.93047,-1.24761,e5e44a7c-586a-431a-9015-067653b05949,1
2,"Holly Cottage, Middle Aston, Bicester, Oxfordshire OX25 5PZ",Detached,,https://www.rightmove.co.uk/house-prices/details/england-16578934?s=008bbecb21976117b1bd0d62869312e38da2e15a4d0251968beeda1c3812a4d4,51.9394,-1.31161,367ce8ab-f9b3-4392-903d-e62fbe113024,2
3,"59, Murcott Road, Upper Arncott, Bicester, Oxfordshire OX25 1PL",Terraced,3.0,https://www.rightmove.co.uk/house-prices/details/england-121122281-15349240?s=9fa49e35c9299f67ef4a61db89b697de73ef8e8cbad8d41fa8d497acbf8c95cd,51.84925,-1.11467,97f0d20d-d255-4a4b-8394-7ff289a1c913,3
4,"7, West Hawthorn Road, Ambrosden, Bicester, Oxfordshire OX25 2SA",Terraced,2.0,https://www.rightmove.co.uk/house-prices/details/england-114304820-18101074?s=bb3094893c58cde1ec8619bcf88cee52d0a256e55fdf65972ec4b6503b000084,51.87448,-1.12072,7e9d4e0d-a36d-4bcd-bbc5-35cbcadb3354,4
5,"30, Dacey Drive, Upper Heyford, Bicester, Oxfordshire OX25 5AA",Detached,,https://www.rightmove.co.uk/house-prices/details/england-16272910?s=a27888d6fd9ddc02f4f908cbab290bfe8d23c0ba1656835dd1336c9ab91e164c,51.92705,-1.26119,48819d60-30fc-4afd-be18-b5b84042f0b8,5
6,"3, Church Close, Weston On The Green, Bicester, Oxfordshire OX25 3QT",Semi-Detached,3.0,https://www.rightmove.co.uk/house-prices/details/england-119331980-15349285?s=b3bc93cb7418c45d50633e1f2e8a4d5cf0208f6b1948b1d005648e508d890ba5,51.86177,-1.23191,d19f2ba2-c650-4692-bc4f-695f81f4789b,6
7,"172, Camp Road, Upper Heyford, Bicester, Oxfordshire OX25 5AG",Semi-Detached,,https://www.rightmove.co.uk/house-prices/details/england-17145139?s=cd87c137f8eb1b9b0d7480f71a340b5be5a4f7a0ee502c7928a86350fdd6986e,51.9282,-1.25826,7e1e499f-dba5-43f3-b7f7-ffdf5cc4c7dc,7
8,"6, The Cottages, West End Lane, Merton, Bicester, Oxfordshire OX25 2NG",Semi-Detached,,https://www.rightmove.co.uk/house-prices/details/england-15349279?s=79c1234c1783a7f36a418733dbea6aeaa049765006f8fe24b0a331cb3ef0b0b4,51.85493,-1.16582,4394de6b-30a4-4e0d-8fac-40454aff3280,8
9,"1, Rowan Close, Ambrosden, Bicester, Oxfordshire OX25 2RW",Semi-Detached,2.0,https://www.rightmove.co.uk/house-prices/details/england-85400961-15650731?s=3a726393905397944760724a9e165043368158b1c6f1e6393fd7630cbdc9ddce,51.86985,-1.12734,d9a5b38c-f472-4b71-a516-39d3df6236c1,9
10,"4, Barretts Row, Wendlebury, Bicester, Oxfordshire OX25 2PH",Detached,4.0,https://www.rightmove.co.uk/house-prices/details/england-113427062-15047233?s=35aa2b1e3a50303c09731ec43c1fb66d73f119798af35bf0a56e30c3a2c6d5c6,51.87305,-1.18567,696d31f7-f311-437b-a54a-7e119091dc7d,10
11,"Bunny Row Cottage, 21, High Street, Upper Heyford, Bicester, Oxfordshire OX25 5LE",Terraced,3.0,https://www.rightmove.co.uk/house-prices/details/england-117811565-93062883?s=0d15574005cfbd2e2f55638aa0c372386e357cf6a409457a68d928f6ea8a7fd8,51.93031,-1.27888,2ab8f16e-f0c9-4b28-88ae-0c43116cf4c3,11
12,"3, Alder Drive, Ambrosden, Bicester, Oxfordshire OX25 2RD",Terraced,2.0,https://www.rightmove.co.uk/house-prices/details/england-116471555-15047236?s=8829eedb9cd951a3f09c8b2d9bcc2b236e9cf1ba8ee035bfe6311d52ac53163d,51.87289,-1.12525,f6b5c438-9ba2-4c2a-880a-6544cbf225e9,12
13,"2, Home Farm Lane, Middle Aston, Bicester, Oxfordshire OX25 5PR",Terraced,3.0,https://www.rightmove.co.uk/house-prices/details/england-80131935-15961504?s=15eb37db1575fa467af79eee279a121fc04d15f7531f7da77d57d75085370c73,51.93984,-1.30971,2af11954-0f0f-4cef-ae93-4cbb867bdee6,13
14,"The Cottage, South Side, Steeple Aston, Bicester, Oxfordshire OX25 4RR",Detached,2.0,https://www.rightmove.co.uk/house-prices/details/england-118829228-15047245?s=2c3bf19ad985238dee3363fbda5bbc02e67102ac7e330c268b1273093753224f,51.92725,-1.30874,04bcbf8b-6e18-4fd2-8b81-d9b212792814,14
15,"7, Orchard Close, Upper Arncott, Bicester, Oxfordshire OX25 1QT",Semi-Detached,2.0,https://www.rightmove.co.uk/house-prices/details/england-44970714-93062832?s=03411f093982366ce1fa0c4e81f2acaa445b9f25b96b70c4d54df8e868c0f10c,51.84801,-1.11717,15df6de2-be03-4a4e-8cc3-b77cc0cd5e96,15
16,"8, Orchard Close, Upper Arncott, Bicester, Oxfordshire OX25 1QT",Detached,3.0,https://www.rightmove.co.uk/house-prices/details/england-43937670-18101011?s=09292357a0b7c085e67e94020856f6ee8a85b48e2376fbdb002778fdd192ff49,51.84801,-1.11717,99aa70e4-6a19-4e69-94ff-ce34629d7290,16
17,"30, Murcott Road, Upper Arncott, Bicester, Oxfordshire OX25 1QH",Semi-Detached,3.0,https://www.rightmove.co.uk/house-prices/details/england-121745432-15047218?s=7ecd35fce2aa58713abc6942b5fac5cbbb13609b14fc99eef7d7d56802007a37,51.85078,-1.11392,c2347cab-b00d-4d2c-a069-53e041d4b888,17
18,"9, James Close, Upper Heyford, Bicester, Oxfordshire OX25 5BF",Terraced,,https://www.rightmove.co.uk/house-prices/details/england-16272922?s=3c1053232a7d883341ef07b3db86ca08204e620ad7e64312a7ee12d27e945c72,51.92603,-1.25597,5ef6a503-f020-475c-a711-0906c8dd97fe,18
19,"1, College Cottages, Merton, Bicester, Oxfordshire OX25 2NH",Semi-Detached,2.0,https://www.rightmove.co.uk/house-prices/details/england-116690834-93062838?s=a9537f476cbb5e74b09e76a8f1ccbbe0ebfa641b98c5d89a954ac10355e9af94,51.85368,-1.16628,c196a5a4-9923-404c-85ff-eeda9bf1bbf9,19
20,"28, Friend Way, Ambrosden, Bicester, Oxfordshire OX25 2AY",Detached,,https://www.rightmove.co.uk/house-prices/details/england-15961453?s=b8ba8030774c217b4c6f5a47097cd6cd031b6adaf25ba1cff5c80a1afadbd92b,51.88284,-1.14496,91eca541-6c10-49c0-ad1b-432c01297398,20
21,"Flat 2, The Chapel, Green Lane, Upper Arncott, Bicester, Oxfordshire OX25 1PA",Flat,1.0,https://www.rightmove.co.uk/house-prices/details/england-47145291-15047212?s=03106a738b18f7cacfea2ec9ea28811dc5f345e90f9b44b1e41c688ad24b2a0e,51.85133,-1.11565,fa27716e-33aa-464b-8a2b-46864a63a0a9,21
22,"The Old Quarry House, Fenway, Steeple Aston, Bicester, Oxfordshire OX25 4SS",Detached,4.0,https://www.rightmove.co.uk/house-prices/details/england-116048798-93062856?s=79755981c6c120980d9300ad68e82c9c6a42bc0758fa136a0d3caae0d421a874,51.93188,-1.31638,eeef147f-9e21-453c-b328-3f04048aa50a,22
23,"3, Woodpiece Road, Upper Arncott, Bicester, Oxfordshire OX25 1PJ",Semi-Detached,3.0,https://www.rightmove.co.uk/house-prices/details/england-113229812-15047215?s=43a1e827ff0e864c29f397e254b7491a78aec558c5f69585295bfcb40c58ef09,51.84898,-1.11366,bb457ddf-ede2-4dd0-9862-73c134c321ea,23
24,"13, Chapel Drive, Ambrosden, Bicester, Oxfordshire OX25 2RS",Detached,5.0,https://www.rightmove.co.uk/house-prices/details/england-113615696-93062850?s=332b08a17fd1d17e11cababfab026ea97529cc8eb868da0b7c07c46b71810b92,51.86955,-1.12285,4aa6b448-8c2f-43c4-af7d-42a84c3a85e9,24
25,"Glebe Farm House, High Street, Upper Heyford, Bicester, Oxfordshire OX25 5LE",Terraced,4.0,https://www.rightmove.co.uk/house-prices/details/england-118601702-15047269?s=4c4aa3196eaf547a55ff4682dc12ffeaaeca584b8e1e08e02bc04aba2d455e86,51.93031,-1.27888,ac5880d6-403e-47cd-91c0-609c430e5e19,25
26,"6, Teale Close, Upper Arncott, Bicester, Oxfordshire OX25 1QJ",Semi-Detached,2.0,https://www.rightmove.co.uk/house-prices/details/england-112577078-93062829?s=f7f6ebb69acd1fee1d16b7e06d110c923da8dc146538abf3dca190d303dd4866,51.85069,-1.11465,c7465224-eec0-4abc-90e8-8194bac4a13f,26
27,"19, Sycamore Road, Ambrosden, Bicester, Oxfordshire OX25 2RN",Terraced,3.0,https://www.rightmove.co.uk/house-prices/details/england-114663092-18101068?s=e464bc705c0ae5d06e1e52159d65b032cad44bc4f8db63c0d0d8493977543e05,51.87299,-1.12612,34dbbfaa-987e-435f-b61c-4ab3c2938b75,27
28,"The Coach House, Church Street, Somerton, Bicester, Oxfordshire OX25 6NB",Detached,3.0,https://www.rightmove.co.uk/house-prices/details/england-129845369-93377019?s=9e638093c67293a53eba5b2f05ec4db317beb9d2189469b49f4d42629ce10964,51.95431,-1.2785,769103c4-dc5b-44e6-bb85-79c9d0a4bda1,28
29,"24, Hart Walk, Upper Heyford, Bicester, Oxfordshire OX25 5AF",Detached,,https://www.rightmove.co.uk/house-prices/details/england-15961480?s=176c2edb7e2aff66f327574179f1047458d0cd5b03359dd5bdea4922825abd77,51.92752,-1.25042,a9f34e99-70a1-479f-b264-195f8bd280e9,29
30,"12, Rectory Close, Wendlebury, Bicester, Oxfordshire OX25 2PG",Detached,4.0,https://www.rightmove.co.uk/house-prices/details/england-79822722-15047230?s=b1c55bce8fa83d6cdab6167f47c0891e7e2980b20a16bed7a247c0ac423a36d7,51.87413,-1.1858,c344e97f-63b9-4ef6-8ba3-c108ce790a82,30
31,"34, Green Lane, Upper Arncott, Bicester, Oxfordshire OX25 1PA",Semi-Detached,3.0,https://www.rightmove.co.uk/house-prices/details/england-114968885-15650698?s=482a316117b2f1ad62509f048e6d5bac202f81311e4dd3de8b2820fc53f0cdc3,51.85133,-1.11565,b1936aa8-8ec4-4c52-a49c-8183df5c42af,31
32,"6, Hampden Square, Upper Heyford, Bicester, Oxfordshire OX25 5AH",Semi-Detached,,https://www.rightmove.co.uk/house-prices/details/england-15047257?s=fb8badadecf457f623d043401d8abc6cd25a91009cac8ed3cbd66385ea1a05bb,51.93129,-1.2492,9cec3313-9e1e-46ce-a70f-1c5332d4da26,32
33,"Cruck Cottage, Northampton Road, Weston On The Green, Bicester, Oxfordshire OX25 3QH",Detached,3.0,https://www.rightmove.co.uk/house-prices/details/england-115260779-93376989?s=e4e9cb831df02af6b19abd71765a2056f4b10079a268b03f08794f46375705a4,51.85712,-1.22212,7e9cb23b-038c-40e6-b2b7-87e5d64bdce8,33
34,"Home Farm House, Church Lane, Weston On The Green, Bicester, Oxfordshire OX25 3QS",Detached,3.0,https://www.rightmove.co.uk/house-prices/details/england-113243081-15349282?s=48244b869ad0e5dde1cf561fdb939cde946e83fe9b940d4b1f409e471df8b918,51.86275,-1.23073,11ee33d7-0cf3-4ba6-940d-52cede5c19b2,34
35,"Rozden, Station Road, Blackthorn, Bicester, Oxfordshire OX25 1TA",Detached,2.0,https://www.rightmove.co.uk/house-prices/details/england-85341780-14732899?s=6798dd9d21d3852e18bd91ffedf5faf4ceb40542934ffbae5f8d530df17b8237,51.86989,-1.09655,7965ac6d-0344-4683-abd6-52c4d2ab6208,35
36,"8, Walker Road, Upper Heyford, Bicester, Oxfordshire OX25 5BG",Terraced,,https://www.rightmove.co.uk/house-prices/details/england-17145166?s=834ed3d081a2157dc5f4c378c208ba2e220161e1ce2d9b7836ce8ada8f039ca0,51.92783,-1.25594,2475d4bd-c884-4168-8efd-149d4a595e2c,36
37,"2, Cornflower Way, Ambrosden, Bicester, Oxfordshire OX25 2AF",Terraced,,https://www.rightmove.co.uk/house-prices/details/england-15047224?s=1dada570b4c4a3c56c354f8ea87823a0f911e3bec1fbfe501aa7ab8b49a2e41e,51.86891,-1.12155,839495c4-a302-465f-a34b-fcd44ef2b8ce,37
38,"57, Trenchard Circle, Upper Heyford, Bicester, Oxfordshire OX25 5TB",Terraced,,https://www.rightmove.co.uk/house-prices/details/england-15961510?s=13bb5de7fe8422ad8983e04282a4121c12e21c595eeb71156d133e2484cb50ff,51.93083,-1.24804,1a98a387-9354-46a1-bca6-8031830a178e,38
39,"1, Elm Tree Court, Ploughley Road, Lower Arncott, Bicester, Oxfordshire OX25 1NY",Detached,,https://www.rightmove.co.uk/house-prices/details/england-93062823?s=0445eb1c79667afd5f7092ae5412c5ce4c50575a9f69a5b81655943660360841,51.85799,-1.11654,fee10f21-53c5-4b83-85d0-42fc70cebd96,39
40,"32, Williams Road, Upper Heyford, Bicester, Oxfordshire OX25 5AX",Semi-Detached,,https://www.rightmove.co.uk/house-prices/details/england-93062874?s=3a16af0491735cd7c098f9fab467ddf639f28a165f887c139d8126f56aaa98ec,51.92521,-1.25482,7747e5d8-acc9-47c7-93c7-3c021636da1f,40
41,"Flat 15, The Station House, West Castle Street, Upper Heyford, Bicester, Oxfordshire OX25 5BX",Flat,,https://www.rightmove.co.uk/house-prices/details/england-16578928?s=1674339944a3ca6e0af7f575b23be44782764388dd3c044401e46f3a555df527,51.92818,-1.25448,7669d2cb-ac16-4656-b70e-7f1d8bb90ec6,41
42,"9, Jubilee Close, Steeple Aston, Bicester, Oxfordshire OX25 4RZ",Semi-Detached,2.0,https://www.rightmove.co.uk/house-prices/details/england-82460685-93376992?s=c98e889b2de859675974b7568e184aaf22fb10609c534b75910a26453a588c10,51.927,-1.31151,bd9d55c6-d23c-496d-ab2c-8002c251f939,42
43,"3, Hampden Square, Upper Heyford, Bicester, Oxfordshire OX25 5AJ",Semi-Detached,,https://www.rightmove.co.uk/house-prices/details/england-93062865?s=d4b765f5e5b4df638b45f769fbac6c45710aaea3b7a663b0f7e172feef72e1d9,51.93075,-1.24935,5fbea4f1-aa5f-404b-82c0-331114deffc6,43
44,"11, Teale Close, Upper Arncott, Bicester, Oxfordshire OX25 1QJ",Terraced,2.0,https://www.rightmove.co.uk/house-prices/details/england-131455589-15349243?s=87ed9876505fe0964e82d5961242ac493f9cc93b8c660d62dc9f495e66bda281,51.85069,-1.11465,d51e0ce3-95b3-48ef-9ee4-08311c177750,44
45,"The Cottage, New House Farm, Lower Road, Blackthorn, Bicester, Oxfordshire OX25 1TG",Detached,4.0,https://www.rightmove.co.uk/house-prices/details/england-28233526-93376959?s=8d5c988843e3adf4d7fa265f6b73b80ab748ba927b74bbff5e67a89a7b1b159b,51.87288,-1.09983,4e98bec7-ee58-4281-9376-7656923b19b0,45
46,"8, Ploughley Road, Ambrosden, Bicester, Oxfordshire OX25 2RJ",Semi-Detached,2.0,https://www.rightmove.co.uk/house-prices/details/england-114554390-93062847?s=190d19b450aec8cbe69a606b46d5ba4b1c809517a907bf61d13ad2462efe9a84,51.87313,-1.12176,b6959daf-a2a0-4338-b994-fee3c52a1782,46
47,"10, Broad Way, Upper Heyford, Bicester, Oxfordshire OX25 5AD",Detached,,https://www.rightmove.co.uk/house-prices/details/england-93062859?s=2d94eb6cbeb56009d7ae1a0f897cdf68932c6a34b8fad459873b1b3d2bb407a6,51.92806,-1.26379,6a6b1d8d-feef-4aac-b8dd-64a6b829156f,47
48,"2, Kathleen Cottages, Mill Lane, Upper Heyford, Bicester, Oxfordshire OX25 5LN",Semi-Detached,,https://www.rightmove.co.uk/house-prices/details/england-93377007?s=9a70d55825adfd3de9347d5f4871a62d69d061e667de0b4e92ad12d4c0604c0b,51.9311,-1.27683,d2c5b59b-79a2-4da8-9d97-8da4aa040d46,48
49,"3, School Lane, Middleton Stoney, Bicester, Oxfordshire OX25 4AW",Semi-Detached,,https://www.rightmove.co.uk/house-prices/details/england-15650743?s=dacba17b0be145cb9e51c2cadbabf9678bb9bfa6bed3e15d96c14797a77ea9de,51.9075,-1.22764,83ad2c74-73be-4c19-b840-2bc888109940,49
50,"1, Manor Farm Close, Merton, Bicester, Oxfordshire OX25 2NA",Detached,4.0,https://www.rightmove.co.uk/house-prices/details/england-109937603-15047227?s=dcbba206324c430883897c6a274e62d501a495ad41a817d0b2fe2663bd816e64,51.85643,-1.16201,bf136790-25c6-4bf7-91a6-87ffe6f395f9,50
51,"4, Cherry Walk, Ambrosden, Bicester, Oxfordshire OX25 2BZ",Detached,,https://www.rightmove.co.uk/house-prices/details/england-16847134?s=53c4ff7d75b449125249c74c040913b3763f99074b2316791ad82a624a22aee7,51.88163,-1.15196,08fa2324-1ad2-4a38-8eaa-ee89e2521160,51
52,"Calebs Farmhouse, High Street, Upper Heyford, Bicester, Oxfordshire OX25 5LE",Semi-Detached,4.0,https://www.rightmove.co.uk/house-prices/details/england-111082088-15047266?s=df0e7a933ce71692383fc3bb555283d9693c748515dbf74e38b187115a3efe5a,51.93031,-1.27888,a1b6ff93-14ae-4899-aa01-0adc95dcfd35,52
53,"19, Main Street, Merton, Bicester, Oxfordshire OX25 2NJ",Semi-Detached,3.0,https://www.rightmove.co.uk/house-prices/details/england-113966675-92750622?s=452dab0bee4cedcbb8ad6acdc4bda0d713214e6981ddf78705370482a1795dab,51.85404,-1.16627,9a79b607-fa0e-4af1-bfad-04479cc12738,53
54,"15, Trenchard Circle, Upper Heyford, Bicester, Oxfordshire OX25 5TB",Detached,,https://www.rightmove.co.uk/house-prices/details/england-16578937?s=e2508ffd1f8884532f257e0dc14e57a301553d6a22d5eabf516ed0b3fd48b8bf,51.93056,-1.24819,828dd33b-8fa9-494a-8d4c-28e61e2248be,54
55,"West Hill, Harrisville Lane, Steeple Aston, Bicester, Oxfordshire OX25 4RP",Detached,4.0,https://www.rightmove.co.uk/house-prices/details/england-113950214-17799592?s=e220d68980da331b56b2f4ce0d09cce4fa7b1b511d1878fd02cdbe023fbdc06b,51.92681,-1.31006,a9db426b-da3c-4cdf-93ad-1f7017e2a7b3,55
56,"52, Merton Road, Ambrosden, Bicester, Oxfordshire OX25 2LZ",Terraced,3.0,https://www.rightmove.co.uk/house-prices/details/england-107812127-18101062?s=afd679ecfbfa0208b1b01a5accf6fba543b681c5a02348e113589843422518c9,51.86832,-1.12708,3072153b-722a-4b02-9393-b915f371c10e,56
57,"6, Ash Lane, Ambrosden, Bicester, Oxfordshire OX25 2RZ",Semi-Detached,3.0,https://www.rightmove.co.uk/house-prices/details/england-74507223-15047242?s=f469184b61ac0db36c9358059f2a2cc4b279f28481e7ecdf403a0ab613695f23,51.87366,-1.1203,c5e830de-a10f-48ea-9364-07bce8b48eeb,57
58,"170, Camp Road, Upper Heyford, Bicester, Oxfordshire OX25 5AG",Semi-Detached,,https://www.rightmove.co.uk/house-prices/details/england-17480311?s=2ecd4d22baa89c89daa2e33cd77eaeb37ebe0697d36f8214746bcc71582e3b74,51.92829,-1.2587,4623b294-8998-41e3-833c-d521e06dbb18,58
59,"Flat 12, The Gate House, West Castle Street, Upper Heyford, Bicester, Oxfordshire OX25 5BX",Flat,,https://www.rightmove.co.uk/house-prices/details/england-17145175?s=cd87adbb4adc825be558ecad1c288782e72e47858b313ae5fc6003f8f16bd0aa,51.92818,-1.25448,8b691a5a-cb02-4410-8d68-18bc60d29092,59
60,"2, Corbett Close, Upper Heyford, Bicester, Oxfordshire OX25 5AS",Detached,,https://www.rightmove.co.uk/house-prices/details/england-15047260?s=5e2a7ef3a17e7656c53fcdd1d05890dbb750ba8502e592e83da835dfb9c05e3c,51.92715,-1.26221,ecf3df12-5edd-4abd-a3bc-6f4f0b3f43df,60
61,"2, Bourne End, Upper Heyford, Bicester, Oxfordshire OX25 5AE",Terraced,,https://www.rightmove.co.uk/house-prices/details/england-15047248?s=90972aca37641c814a034572b8fc64c7a72d717058e67e517e810b3954305a2b,51.92725,-1.26366,3dcc1fd1-5176-4532-9cf8-677ec5a9e04b,61
62,"Flat 7, The Gate House, West Castle Street, Upper Heyford, Bicester, Oxfordshire OX25 5BX",Flat,,https://www.rightmove.co.uk/house-prices/details/england-16272928?s=5b656a252dd4c6e4a3997b4f35a339896acf8a590df9dd2991c9c234ce04dc9f,51.92818,-1.25448,511b25dc-8801-444b-bfb3-1f47300916e4,62
63,"The Shophouse, Somerton Road, Upper Heyford, Bicester, Oxfordshire OX25 5LB",Detached,,https://www.rightmove.co.uk/house-prices/details/england-15047263?s=7f8872dc8562e5b8c619a47bde0a2a597b017590ab06aecb8f597d594d44138a,51.93191,-1.27638,6668e7ff-81c5-4c3e-89bd-1496af5fd933,63
64,"1, Rectory Close, Wendlebury, Bicester, Oxfordshire OX25 2PG",Detached,5.0,https://www.rightmove.co.uk/house-prices/details/england-110308130-92750628?s=85af10e730cd2f868f343cf274472d75ef1fc4d656a17cabd06c0e2d72b463bf,51.87413,-1.1858,10e6d9c1-a45b-4e2b-9840-daaefcaac27b,64
65,"16, Duns Tew, Bicester, Oxfordshire OX25 6JR",Semi-Detached,,https://www.rightmove.co.uk/house-prices/details/england-14386774?s=796fc0edba5330ccd91fd97032bd48bccb081ceb442ae29c338a736cf97fc8cd,51.95162,-1.34038,52f02826-23ef-4958-9891-9d5c0e17cc80,65
66,"8, Keele Close, Upper Heyford, Bicester, Oxfordshire OX25 5AU",Detached,,https://www.rightmove.co.uk/house-prices/details/england-93377001?s=60e9aad6cc36d28a7b2bbae1d1b90a54a89fa05eba942da24f70d5df5316a547,51.92634,-1.26237,00ea26a3-84b4-45c7-8d5c-baf094494ee8,66
67,"Flat 1, The Gate House, West Castle Street, Upper Heyford, Bicester, Oxfordshire OX25 5BX",Flat,,https://www.rightmove.co.uk/house-prices/details/england-17145172?s=486172d887b8d84801deb1dce360288539fefb53d1d04815f0bec32a02bb02e6,51.92818,-1.25448,e11e2407-8b7b-403f-9f5e-157fa0e643bf,67
68,"Sayers Bungalow, Bicester Road, Middleton Stoney, Bicester, Oxfordshire OX25 4TD",Detached,4.0,https://www.rightmove.co.uk/house-prices/details/england-109387298-15650746?s=0b17063996af59591007ad12df557ed9af260d56b35b722c39230f806ef0663f,51.90702,-1.22184,9ef7df5f-2ce0-4506-b13a-f7ff1ac40af0,68
69,"4, The Watermeadows, Ambrosden, Bicester, Oxfordshire OX25 2AB",Detached,,https://www.rightmove.co.uk/house-prices/details/england-15047221?s=247694fdbf7c0a332aa7b9f717d9119754815ab1565aad6b5e13540bede7aefb,51.86881,-1.12112,addf971a-67bd-4135-913f-3b7a877fcfe1,69
70,"19, Ludgershall Road, Piddington, Bicester, Oxfordshire OX25 1PU",Terraced,3.0,https://www.rightmove.co.uk/house-prices/details/england-89530144-93062826?s=21ab3fdd7ae275f5f5753287262ece2f9e0ac9e7799d6e581fed2a75953f7b91,51.85161,-1.06991,2616639d-0dbb-492d-a440-bad9af07363e,70
71,"1, Hill Farm Lane, Duns Tew, Bicester, Oxfordshire OX25 6JH",Detached,3.0,https://www.rightmove.co.uk/house-prices/details/england-90851188-93377013?s=c36ea8fb6fd9c01493c47960545c482dc0280550bd54ad7edf6ff7903de5bdfe,51.95463,-1.3335,c462638f-d372-4abf-ace0-913f558db93b,71
72,"31, Hampden Square, Upper Heyford, Bicester, Oxfordshire OX25 5AJ",Terraced,,https://www.rightmove.co.uk/house-prices/details/england-92750670?s=91c5d906d75afc98cae9d6bf22268bb6f307b60a4f6695b7c459ba05b0798ae9,51.93075,-1.24935,2798c78f-543f-45ad-82cc-503a68f0a4af,72
73,"Jasmine Cottage, Fir Lane, Steeple Aston, Bicester, Oxfordshire OX25 4SF",Detached,2.0,https://www.rightmove.co.uk/house-prices/details/england-90332251-93376995?s=37d3adaa55cf4632a8c80297923bb222f737f89e3f5afc89f84ee08a699da8c7,51.93138,-1.30868,6b5b955f-f856-4636-adda-42270c09d9be,73
74,"Orchard Cottage, Station Road, Blackthorn, Bicester, Oxfordshire OX25 1TA",Detached,5.0,https://www.rightmove.co.uk/house-prices/details/england-46266446-93376956?s=049776499854d16e02b4c34f102efdce45ed0b83b44da7a6bc17755eb4da861f,51.86989,-1.09655,d2f64979-cb08-474a-846c-c0b545633cf6,74
75,"1, Hart Walk, Upper Heyford, Bicester, Oxfordshire OX25 5AF",Detached,,https://www.rightmove.co.uk/house-prices/details/england-15047254?s=55985692d3079db90fa27733f9a761e6c3c0005522844c165f0b3e8c0905c9ae,51.92752,-1.25042,d9805178-da3e-4e6c-b5d2-3375c21ea123,75
76,"3, Ixer Row, Upper Heyford, Bicester, Oxfordshire OX25 5TD",Semi-Detached,,https://www.rightmove.co.uk/house-prices/details/england-17145199?s=b13c5cd7da103fa5c0e26f0649575fad2738f2de973a650da04f62a46a09b6a8,51.92783,-1.25711,26e2901d-a230-4dc2-9d4a-284049ad1862,76
77,"4, Croft Close, Merton, Bicester, Oxfordshire OX25 2NQ",Detached,4.0,https://www.rightmove.co.uk/house-prices/details/england-115989038-93062844?s=51746e361e7826207cdad083b6823618f138575559270c9d6be2c64b023e8b3e,51.85466,-1.16597,3c5230e3-84b2-45d6-8229-4319023c1eda,77
78,"2, Fynn Court, Upper Heyford, Bicester, Oxfordshire OX25 5AR",Terraced,,https://www.rightmove.co.uk/house-prices/details/england-14386765?s=a573a5c2de35248d33a9f7e2e1705e8372d5c0c6dd2b57c3cbd7c38e7d1ac9a2,51.92777,-1.26162,1ee1c48d-bf77-4478-9a1d-99ce62e28222,78
79,"8, Howard Road, Upper Heyford, Bicester, Oxfordshire OX25 5BD",Semi-Detached,,https://www.rightmove.co.uk/house-prices/details/england-14386768?s=89991a5426830f718150ee01e32a68a4867099ef03170cf96f41746aaee477f5,51.92665,-1.25553,68fd28bd-3c44-45df-859c-878b8b70c848,79
80,"1, Bayliss Drive, Upper Heyford, Bicester, Oxfordshire OX25 5AY",Semi-Detached,,https://www.rightmove.co.uk/house-prices/details/england-93062880?s=349be8357f42d39e3ae3a431b0278419f458eb3d5b42e926f210defc5357e2b8,51.92494,-1.25454,0558ed53-6464-4ba0-9b57-2bc01ae155ef,80
81,"38, Green Lane, Upper Arncott, Bicester, Oxfordshire OX25 1PA",Terraced,4.0,https://www.rightmove.co.uk/house-prices/details/england-29329313-14386723?s=638be2ccd3d4b63e56f8ec45da68233ee89ff51dcc5aeeced4cc47397fc11c5c,51.85133,-1.11565,ca9acbb4-8b10-4872-bf31-3d99a7aa28cd,81
82,"Manor Farm House, Wendlebury, Bicester, Oxfordshire OX25 2PW",Detached,,https://www.rightmove.co.uk/house-prices/details/england-93376980?s=774435eeebf3d73ab994957fd1cc6c6993d4f205871d72cea10984ec7178d03d,51.87216,-1.18671,ab25f336-8ed7-44ce-8722-669d6ac4f442,82
83,"18, Rectory Close, Wendlebury, Bicester, Oxfordshire OX25 2PG",Detached,5.0,https://www.rightmove.co.uk/house-prices/details/england-108304778-14036536?s=e073052289ea527e0ae455bd8d859cb5eb84791b8ecce28104ea5da46ef1016d,51.87413,-1.1858,b8ae360e-4f3d-4f8a-8cc2-ce478ec4b677,83
84,"13, Chadwick Place, Ambrosden, Bicester, Oxfordshire OX25 2BG",Terraced,,https://www.rightmove.co.uk/house-prices/details/england-15349252?s=3aca59537c442018cc4dee8941d469ff9c4d32d574239461f0bb7698b8b726e3,51.88257,-1.14598,6594db46-f836-4017-9b7e-10516ae0e81b,84
85,"26, Dashwood Rise, Duns Tew, Bicester, Oxfordshire OX25 6JQ",Semi-Detached,3.0,https://www.rightmove.co.uk/house-prices/details/england-113046488-14036596?s=98b35c4a7ae625f1f9f570b54cf5d7328e9fbfd749a1aa95e446eaddcca9ea52,51.9548,-1.33175,f4b632f2-c495-4aa4-b8f4-b22044fe0a6b,85
86,"20, Williams Road, Upper Heyford, Bicester, Oxfordshire OX25 5AX",Detached,,https://www.rightmove.co.uk/house-prices/details/england-15961486?s=364c99abefdc89b0ab598bec703a8a866835341903edb03a239ad20f8d9df980,51.92521,-1.25482,06b180e5-736b-4339-9d56-e5b531928b89,86
87,"67, Trenchard Circle, Upper Heyford, Bicester, Oxfordshire OX25 5TB",Semi-Detached,,https://www.rightmove.co.uk/house-prices/details/england-17145196?s=2905537988d7e6881a2b011d00a0aa561cc168ef2f88b6696e7da11e64f1cc93,51.93065,-1.24761,a7a43233-01e8-4983-be37-b032aa108712,87
88,"Rose Villa, Thame Road, Blackthorn, Bicester, Oxfordshire OX25 1TE",Detached,4.0,https://www.rightmove.co.uk/house-prices/details/england-107546471-14386729?s=bf8a33c5e645d582bc3f46dbbf5d80dec8bf56163200963525841849057a3d73,51.86928,-1.09976,4f895972-e9d7-483e-89a0-9736d330962c,88
89,"4, Home Farm Lane, Middle Aston, Bicester, Oxfordshire OX25 5PR",Terraced,3.0,https://www.rightmove.co.uk/house-prices/details/england-90332260-93062886?s=753b9719f1d2427c94a0090c58ee0c93a10f0acfd9765e4b06d4aba3ab7b490c,51.93984,-1.30971,d9fee736-9eea-42c7-a9ed-58bee8d494c9,89
90,"The Acorns, Somerton Road, Upper Heyford, Bicester, Oxfordshire OX25 5LB",Detached,3.0,https://www.rightmove.co.uk/house-prices/details/england-18015722-93377004?s=b6db6e227b54b4281f7d78016a0b239246522f3a12c96eef466f95e54bbad2bd,51.93191,-1.27638,0d2b9403-2c17-4152-9939-4af8b99eda36,90
91,"5, Bromeswell Close, Lower Heyford, Bicester, Oxfordshire OX25 5NU",Semi-Detached,3.0,https://www.rightmove.co.uk/house-prices/details/england-90332176-13715275?s=6d358170c1f6d606d2fab06450c729d3e1934aa442ffcb0c35054bf171128008,51.91965,-1.28632,3a80a504-7df2-4e85-a235-ec7cd0e3f8ed,91
92,"8, Soden Road, Heyford Park, Bicester, Oxfordshire OX25 5LR",Semi-Detached,4.0,https://www.rightmove.co.uk/house-prices/details/england-90924370-17799616?s=df9cd152444a6ee564bd3909e5c07112d3e8a6e7aed6e83d0a8820febb4acb2b,51.92922,-1.24967,b7a82ec3-b901-448a-a2b3-29d07c19a971,92
93,"32, Dashwood Rise, Duns Tew, Bicester, Oxfordshire OX25 6JQ",Detached,4.0,https://www.rightmove.co.uk/house-prices/details/england-110216951-14036593?s=2985e71cdbadbff5b5520cdf47ba64ed06c35962d2b845d4dd91a1c25adfc378,51.9548,-1.33175,06ff9bbd-24f7-456f-a8bc-4d87933c4054,93
94,"61, Mcguire Road, Upper Heyford, Bicester, Oxfordshire OX25 5DU",Terraced,,https://www.rightmove.co.uk/house-prices/details/england-17799613?s=55c949cad0c579c3dfe17fe0a67970a520f204e13b93cfebb3574065ac40191a,51.93043,-1.25488,9dfdc43b-7f77-4796-905d-1864fcda6f72,94
95,"Lewannick, Harrisville Lane, Steeple Aston, Bicester, Oxfordshire OX25 4RP",Detached,4.0,https://www.rightmove.co.uk/house-prices/details/england-108336560-13715254?s=e65ca761dea94dd0448618ecabcec7c0c9cbb61d4bcb0dff21066708a201a2e5,51.92681,-1.31006,d64cbc1d-5841-4458-871d-85121168a24c,95
96,"60, Hampden Square, Upper Heyford, Bicester, Oxfordshire OX25 5AH",Semi-Detached,,https://www.rightmove.co.uk/house-prices/details/england-15650749?s=a71feee06fc4c8fa1aa80180a25568edde6b8842f188660a47bf1783653565d8,51.93129,-1.2492,b9bfa9d2-3941-4483-a2ed-882f1ec906d1,96
97,"17, Williams Road, Upper Heyford, Bicester, Oxfordshire OX25 5AX",Detached,,https://www.rightmove.co.uk/house-prices/details/england-15961483?s=6cb1c6568f69de9e11b74aed3bfd7094508aa598e5fc951c90b22f295a741314,51.92521,-1.25482,4dc3c23d-c9ea-41fd-a32e-30cc14709319,97
98,"11, Church Leys Field, Ambrosden, Bicester, Oxfordshire OX25 2DF",Detached,,https://www.rightmove.co.uk/house-prices/details/england-93376974?s=b8caa91b7ce22dc725fc70cb4d5b1c2681e407a885a4c24c489e8a4ddd56bddf,51.87155,-1.11424,c2e2af21-b36c-4efc-ab60-dd19fe06aba8,98
99,"6, Hart Walk, Upper Heyford, Bicester, Oxfordshire OX25 5AF",Detached,,https://www.rightmove.co.uk/house-prices/details/england-14732923?s=1ae713acc178f85b21e805310792a4f6261d055bfd64b451e55657f8b302df9f,51.92752,-1.25042,e9abfa3d-1f33-4ffc-b764-c087438450d4,99
100,"23, Briar Furlong, Ambrosden, Bicester, Oxfordshire OX25 2AD",Detached,3.0,https://www.rightmove.co.uk/house-prices/details/england-103371818-93376962?s=6fb8d2cdde94dbd1baa9cd710e4261593058252034ca56360bb4a1395bf1094d,51.87413,-1.12276,322ce27f-4dbb-439d-9455-002b845d192e,100
101,"3, Gulley Row, Merton, Bicester, Oxfordshire OX25 2UH",Terraced,2.0,https://www.rightmove.co.uk/house-prices/details/england-107717492-93376986?s=4bbec7c4284c1cdb4488a92bb8686932dd7cd6f806546c1b710693b3d919eb9e,51.85376,-1.16584,42e69810-129b-459f-ba62-65a4b7aa1da8,101
102,"5, Orchard Close, Upper Arncott, Bicester, Oxfordshire OX25 1QT",Semi-Detached,,https://www.rightmove.co.uk/house-prices/details/england-14732896?s=ce9e0649c216b1c6579a16dbbf9dbd61a868e1b1723ba02c0ea3928d01ae1cf8,51.84801,-1.11717,7cfd86ea-dc96-417e-9339-005927cba6c5,102
103,"32, Read Place, Ambrosden, Bicester, Oxfordshire OX25 2BH",Terraced,,https://www.rightmove.co.uk/house-prices/details/england-16272874?s=401887f52c97ab36237b648545a43a33798448f0278d572c022c23ca9116fa69,51.8827,-1.15034,60dd2b0c-5e79-4598-a517-9b25f0eeee9b,103
104,"1, Swan Close, Blackthorn, Bicester, Oxfordshire OX25 1TU",Detached,4.0,https://www.rightmove.co.uk/house-prices/details/england-16405634-14732905?s=95662a514273186c5702e174e8dcfdb5af7413fa2ce9f4df4c4651ca1a84bef1,51.86899,-1.09686,d2e27057-be69-446e-b3dd-5582666b60e7,104
105,"65, Trenchard Circle, Upper Heyford, Bicester, Oxfordshire OX25 5TB",Semi-Detached,,https://www.rightmove.co.uk/house-prices/details/england-17145193?s=bab5569b49e8f83f0a2ae532a4ce0bfbaae59f3fc2eb1a65f1e986b5c8dfbb92,51.93065,-1.24761,8352319d-beca-434e-b650-88c5eaae7ebb,105
106,"5, The Paddock, Somerton, Bicester, Oxfordshire OX25 6LL",Semi-Detached,,https://www.rightmove.co.uk/house-prices/details/england-14386780?s=95542e5e0b8e2bc1674d78ba1d7d7b1a71cdbcc05567a88938816550c426fd45,51.95286,-1.27648,b43a8ac8-d34e-4308-b1bd-666f5ab1af8d,106
107,"11, Lawrence Fields, Steeple Aston, Bicester, Oxfordshire OX25 4SX",Detached,3.0,https://www.rightmove.co.uk/house-prices/details/england-105263336-92750655?s=3a485aca9d25e61efcc5a50d31967042ad19384c5ff7f705651f024cfdf650ca,51.92625,-1.30774,fca4765c-63b0-420e-8598-463af8728274,107
108,"2, Church Close, Weston On The Green, Bicester, Oxfordshire OX25 3QT",Semi-Detached,3.0,https://www.rightmove.co.uk/house-prices/details/england-76885806-14036551?s=1ddad27c57bbf19177b5c671acd93978026d6fe8ea0eac3e5afee47efb56c68e,51.86177,-1.23191,213525bc-ba14-4e55-814c-76a075a8dc9f,108
109,"6, Nizewell Head, Steeple Aston, Bicester, Oxfordshire OX25 4SJ",Semi-Detached,4.0,https://www.rightmove.co.uk/house-prices/details/england-107769608-14732920?s=020e6f9726dceb6e7b040749d9263befb25b788019c44da057fb996456d53d71,51.92579,-1.30557,faec6ba0-b07e-42e2-8c19-93c625e153b8,109
110,"38, Trenchard Circle, Upper Heyford, Bicester, Oxfordshire OX25 5TB",Semi-Detached,3.0,https://www.rightmove.co.uk/house-prices/details/england-80201379-18101104?s=5ace5ea4cc4fab0e6358ec329efe903d6d23cee2f6a730dcf0dadd2dbfb71b0e,51.93047,-1.24761,ef5ad456-1c50-46ed-a121-02ebb2bbdb0b,110
111,"16, Read Place, Ambrosden, Bicester, Oxfordshire OX25 2BH",Detached,,https://www.rightmove.co.uk/house-prices/details/england-15961456?s=7f9d074d07580b60e786f5b866be2e2549a68cafd6b0d42908ba2894f8ef87f8,51.88301,-1.14975,762d6215-5196-42e3-8eaf-ed1d4b712b12,111
112,"2, Derby Paddock, Middleton Stoney, Bicester, Oxfordshire OX25 4AR",Semi-Detached,3.0,https://www.rightmove.co.uk/house-prices/details/england-77312565-13715251?s=654b3304ceed8947de2e5d023c75163d74afff3a483eae4c00d2c6f91eae04af,51.9084,-1.22646,86e6e7b1-7c35-4aa4-8284-55050a552848,112
113,"Ash Barn, Greenway, Caulcott, Bicester, Oxfordshire OX25 4NF",Detached,5.0,https://www.rightmove.co.uk/house-prices/details/england-90160708-14732917?s=2108cfddc81cb963674a86afa0d256d9a7dac6ec77a83d6671b1b4475f350878,51.91161,-1.26508,8aa251ae-da88-401b-82f0-9c51920778d4,113
114,"10, Read Place, Ambrosden, Bicester, Oxfordshire OX25 2BH",Detached,,https://www.rightmove.co.uk/house-prices/details/england-18101026?s=f18ef26b024ccc7bff2284702280c259baef32d0d6133b92dcca9fb59416a523,51.8827,-1.15034,dfcc8e9b-16a3-4694-852c-a482bfb4aa85,114
115,"Olde Shoemaker Cottage, Church Lane, Weston On The Green, Bicester, Oxfordshire OX25 3QS",Semi-Detached,3.0,https://www.rightmove.co.uk/house-prices/details/england-106619804-92750634?s=c8d3f6462d8b6c54e9fdac0310c6aef229d457f251ccb6dcacf21910820a7054,51.86275,-1.23073,e47e7a07-94a3-4105-a1cd-d38f0d3b7311,115
116,"Chapel Cottage, South Side, Steeple Aston, Bicester, Oxfordshire OX25 4RU",Detached,3.0,https://www.rightmove.co.uk/house-prices/details/england-86893978-13715257?s=652fa5b1635ad5b8195060ce8482d82a818790b50596240ac4c23f50fecc17f5,51.92762,-1.31077,57f02818-d797-4212-86fe-460b28eda9cb,116
117,"22, Dacey Drive, Upper Heyford, Bicester, Oxfordshire OX25 5AA",Detached,,https://www.rightmove.co.uk/house-prices/details/england-14036557?s=537254b96f5d8d902eebc5ceed6d739e5fe60d8323593c81c004219c333b7dc9,51.92678,-1.26163,e827787c-d669-49c9-a3a3-355e0707004d,117
118,"3, Otmoor View, Merton, Bicester, Oxfordshire OX25 2NL",Semi-Detached,5.0,https://www.rightmove.co.uk/house-prices/details/england-79281183-14732908?s=2a0c1d49993ead4eaf4df11d0e3fb61107cb080e078011b5aac84b390846dc8c,51.85342,-1.16773,dd1f5cd2-a109-467d-acbc-73ae30fee6fe,118
119,"9, Daisy Hill, Duns Tew, Bicester, Oxfordshire OX25 6LB",Detached,2.0,https://www.rightmove.co.uk/house-prices/details/england-102454814-92750694?s=4f973719ea4cd09153c287055a30232fe9590f1b31f915dbeb4ebd3b3b4b5416,51.95142,-1.33733,fc5b4509-b6a7-47e2-a1a6-46895217a5c8,119
120,"11, Rowan Close, Ambrosden, Bicester, Oxfordshire OX25 2RW",Terraced,2.0,https://www.rightmove.co.uk/house-prices/details/england-90229711-14036545?s=296c3cadae9c65aaa3fcb4be813cd68d7325972f20ed0f9f46df857fc1042e6a,51.86985,-1.12734,0d7b3445-5f6f-402c-8b64-0226e3eb57c5,120
121,"1, New Manor House, South Side, Steeple Aston, Bicester, Oxfordshire OX25 4RR",Terraced,,https://www.rightmove.co.uk/house-prices/details/england-92750652?s=a10463f0ee3f36876c780ced64590fab6e4174d756cba9333535c653358aea7e,51.92725,-1.30874,6fe4d552-0e62-43e3-b384-fefa2b1455d2,121
122,"The New Homestead, 82, Lower End, Piddington, Bicester, Oxfordshire OX25 1QD",Detached,,https://www.rightmove.co.uk/house-prices/details/england-13715191?s=c74dcc676058d2447a2b353ba95b988bff9d05c55f964ca8d2d7fef601a762f3,51.85351,-1.07118,f6d57042-5de7-4607-847d-9508993c9b17,122
123,"Flat 40, Queens House, Westacott Road, Ambrosden, Bicester, Oxfordshire OX25 2AZ",Flat,,https://www.rightmove.co.uk/house-prices/details/england-18101020?s=1e30a4f83ab987e9fa52cb41769357c66efde892a2713d03722e8e415c3ec3ce,51.88355,-1.14422,e02b1b78-3c7c-46a0-9567-0aa6c70e9311,123
124,"12, Lally Drive, Upper Heyford, Bicester, Oxfordshire OX25 5BN",Semi-Detached,,https://www.rightmove.co.uk/house-prices/details/england-15961498?s=f5f4d7d150226dcfe166a99ca70a822a1302d7fe15640862dff5680d5d4b5306,51.92924,-1.2597,fbcba2a1-df7e-447e-b2e2-59ca884600e7,124
