,address,propertyType,bedrooms,detailUrl,location_lat,location_lng,property_id,index
0,"8, Sullart Street, Cockermouth, Cumbria CA13 0EG",Terraced,2.0,https://www.rightmove.co.uk/house-prices/details/england-84658991-16976479?s=c8a9564d5c24f1bbb0f2c1c140caa9003c3b192ca8521ab1473ff27150ca9d97,54.66302,-3.3678,c1c363b6-da67-45fe-bd43-b552ea1dd3ea,0
1,"4, Simonscales Lane, Cockermouth, Cumbria CA13 9DJ",Detached,2.0,https://www.rightmove.co.uk/house-prices/details/england-123868409-16976530?s=477b978b2ed6290016d4e2ecebe252d14249385caa5a2439b481e1a92276ac32,54.65566,-3.35965,bfa3e7f6-9310-4a27-913f-08833349af10,1
2,"107, Church Meadows, Great Broughton, Cockermouth, Cumbria CA13 0LE",Terraced,2.0,https://www.rightmove.co.uk/house-prices/details/england-124132856-16422004?s=4020341524a1217d0c1fa294f8814edc0cf2c0554b36669b1a1a8050cb6ad7c2,54.67006,-3.43565,9df84ad9-68ac-4f55-a30d-3ed44e89c23f,2
3,"30, Melbreak Avenue, Cockermouth, Cumbria CA13 9AE",Semi-Detached,3.0,https://www.rightmove.co.uk/house-prices/details/england-123632954-16422031?s=28388647790716574dafe5c46c72b3ca5ce067316d2b6bd177f768e54cbbfbf0,54.66218,-3.35522,04b969c7-eb9a-4671-b059-ad8e9e4d16d2,3
4,"7, Greenlands Court, Cockermouth, Cumbria CA13 9XF",Detached,,https://www.rightmove.co.uk/house-prices/details/england-16976557?s=42e11d2672edd073553de758d74192240f1e36a6baff7e99cdcc26d28e982374,54.65735,-3.34436,907d3291-504e-4f61-9b02-311935286917,4
5,"17, St Bridgets Close, Brigham, Cockermouth, Cumbria CA13 0DJ",Detached,,https://www.rightmove.co.uk/house-prices/details/england-17949565?s=c3247132171f91b08f4d11b3de3bc5041166daa97311f1ed10438eb9040a0def,54.6635,-3.42007,befe5477-7cab-4b18-bbb0-4143cf2ee73a,5
6,"11, Horsman Court, Cockermouth, Cumbria CA13 0HQ",Flat,2.0,https://www.rightmove.co.uk/house-prices/details/england-128667824-16421989?s=5318b75393a80decf84d978a397e7689396407cd48f1fb995b6069da57cea777,54.66316,-3.37184,3ef60a07-2c72-4cb5-a0a1-31ad5b58ffeb,6
7,"8, Williams Grove, Cockermouth, Cumbria CA13 0ZJ",Semi-Detached,,https://www.rightmove.co.uk/house-prices/details/england-16976524?s=c97e849a4024d785de34f906a1af776f7b052dce615b403ab936b39ff9a9afb5,54.66263,-3.38639,9143935d-06f4-4d36-b07f-32cf429a524d,7
8,"25, Towers Lane, Cockermouth, Cumbria CA13 9EA",Detached,3.0,https://www.rightmove.co.uk/house-prices/details/england-85601787-17306218?s=136285f74b563ccd2984f74bfcda943285ac50a21595d213d1b2c78b6b0b5243,54.6558,-3.35485,40f4898d-80ec-4e36-b43f-3ab502cfff9a,8
9,"6, Cocktons Yard, Cockermouth, Cumbria CA13 9LN",Flat,1.0,https://www.rightmove.co.uk/house-prices/details/england-123109916-16976542?s=341a7141e931bdb54688e8d281fa0fedd8053886445564e8fe16636e5d5f94a9,54.66403,-3.36613,0aa657fb-1c76-4ef3-9f3f-898ac1449519,9
10,"3, Garden View, Papcastle, Cockermouth, Cumbria CA13 0JT",Terraced,,https://www.rightmove.co.uk/house-prices/details/england-16421998?s=5cbf38bf3aff42fce0138b20203dcf4940df39580f264a9767bf3401050ca105,54.66906,-3.38258,fce97cdd-3897-4859-b581-6afa7c296e02,10
11,"15, Strawberry How Road, Cockermouth, Cumbria CA13 9ZD",Detached,,https://www.rightmove.co.uk/house-prices/details/england-16422061?s=ad7139fc0ad7af543675d639b2755611c19293298b7ad8e208190f7a1f1f3df1,54.65714,-3.34776,cacc137a-4f8e-4af7-857a-bf44f8265de0,11
12,"1, Mill Grove, Tweed Mill Lane, Cockermouth, Cumbria CA13 9DE",Detached,,https://www.rightmove.co.uk/house-prices/details/england-16422046?s=02fe82b0685caf6bafa4ece64bb72a3ca146a49e784449b167a0a4a9e7e10fd5,54.65988,-3.35979,600e65a2-984f-4d0c-96fb-f8d315d2e47b,12
13,"11, Church Meadows, Great Broughton, Cockermouth, Cumbria CA13 0LE",Semi-Detached,2.0,https://www.rightmove.co.uk/house-prices/details/england-132442241-16422001?s=f39013f30c31e3268d6c3d980ecc18f590189d484f1fdf8ad4bea76bf0bfb99e,54.67006,-3.43565,b9c0124c-2c13-4a86-b8a9-c2c34ef2bf7d,13
14,"15, Mayo Park, Cockermouth, Cumbria CA13 0BJ",Detached,3.0,https://www.rightmove.co.uk/house-prices/details/england-123515702-16115044?s=c71d4cd0111ed134a5bdffe2eac8f9008000280643215df449017213feecef72,54.65995,-3.37716,3ef6f498-d522-4842-9b43-7d81b2ddaf33,14
15,"44, Gable Avenue, Cockermouth, Cumbria CA13 9BU",Detached,3.0,https://www.rightmove.co.uk/house-prices/details/england-85699917-16115149?s=f542b6eea62674dcac0bab90ecf35cf0c59c5e203dd41d9538e6e41d5542af67,54.66191,-3.34684,21c2c7e7-ec51-4ddb-9e32-8b7e02a5cadd,15
16,"1, Highcroft Close, Tallentire, Cockermouth, Cumbria CA13 0NR",Semi-Detached,3.0,https://www.rightmove.co.uk/house-prices/details/england-123619292-16115107?s=04a70cfbce9d1636630324e1b7fc00f55fe55c248ccb0e15e22c84cc7efe17e7,54.70325,-3.38731,2dc23bc7-1bc8-4732-8033-086b10ad70c8,16
17,"1, Silecroft, Main Street, Greysouthen, Cockermouth, Cumbria CA13 0UL",Detached,,https://www.rightmove.co.uk/house-prices/details/england-16422019?s=d7ac65786ac8a8d39cfa9108bae32336ad00091338a77a1c38799c74386afbb7,54.64663,-3.44071,a047203c-6d06-45c9-be68-bf588fd4ba4e,17
18,"Rookery Cottage, Main Street, Greysouthen, Cockermouth, Cumbria CA13 0UG",Semi-Detached,2.0,https://www.rightmove.co.uk/house-prices/details/england-75512680-16115137?s=5f30c983489debd42bfd5a736912f74464ac89beb92ff152bd4871e4ea3f73ef,54.64942,-3.44035,e3f25eb0-1756-4e4b-8a01-d8581d48bf04,18
19,"25, Main Street, Great Broughton, Cockermouth, Cumbria CA13 0YJ",Detached,4.0,https://www.rightmove.co.uk/house-prices/details/england-120816530-16422025?s=de188624e14d6a035a0f9ab326eb9ba35db89e79deda8e394a770fcec2118a17,54.66837,-3.43419,78cfb08a-5ce4-4ca8-bd3c-298821d911c2,19
20,"5, Dale View, Cockermouth, Cumbria CA13 9EN",Detached,3.0,https://www.rightmove.co.uk/house-prices/details/england-84889659-16720879?s=5a12ca9c851f7caedd937aa9b16062bc16a626127032aec7ef28380ecbb750fa,54.65697,-3.36279,b7259f7f-79ce-41d2-bc76-5a2cab84f9ce,20
21,"2, Beckside, Eaglesfield, Cockermouth, Cumbria CA13 0SQ",Semi-Detached,3.0,https://www.rightmove.co.uk/house-prices/details/england-123812198-16115125?s=2da093d5acac12f31999887d8f22087a166de653aee0502f57563a54ac5abd1e,54.64061,-3.40238,dc785829-e2ae-46c7-a6d3-2c1f8842a578,21
22,"1, Dale View, Cockermouth, Cumbria CA13 9EN",Detached,4.0,https://www.rightmove.co.uk/house-prices/details/england-123388034-16115167?s=94430aa99d3b0fe864b3e41bfd000f1275c35a6001d969b46ce4a0865749cc58,54.65697,-3.36279,259ad1bd-1c27-4482-9352-621d0d8063be,22
23,"17, Melbreak Avenue, Cockermouth, Cumbria CA13 9AN",Semi-Detached,3.0,https://www.rightmove.co.uk/house-prices/details/england-84848763-16422037?s=03b18b043a5b4cdfe87f9c3daabdc94b68cd215b7b569ed5d95780be29001a77,54.6627,-3.35678,d3fad796-1a58-4691-af46-b1ab7cae8781,23
24,"26, Lowscales Drive, Cockermouth, Cumbria CA13 9DS",Detached,3.0,https://www.rightmove.co.uk/house-prices/details/england-96613849-16115155?s=9e2f9b6fb8f9cb9f6d5f961ef8d324e3052adf4cf63f1a30352cf5b35ff5f7e9,54.65776,-3.35631,987a6deb-343b-4a6a-8ba6-1943fec1bb4f,24
25,"Schiehallion, Embleton, Cockermouth, Cumbria CA13 9YP",Detached,,https://www.rightmove.co.uk/house-prices/details/england-16115200?s=f238adf5c881fc850367edfe58aa60bc5cc53a32278a793119a52125927b0731,54.65666,-3.27582,2fb80594-d1d4-4482-b007-04e9816528bf,25
26,"13, Laureates Lane, Cockermouth, Cumbria CA13 0HY",Semi-Detached,,https://www.rightmove.co.uk/house-prices/details/england-16720828?s=0dca6feb8fffb2f428d3946ac550a0c0affb82dbd0a274ac0064ab7147f9f7e9,54.66246,-3.38577,4f9ee192-2cf4-4615-929f-bad3fabaef23,26
27,"43, Gote Road, Cockermouth, Cumbria CA13 0JB",Terraced,2.0,https://www.rightmove.co.uk/house-prices/details/england-119254181-16720831?s=5c3ea964e9529d52b1746c436ea98bcbd2bdcbb7a83cc1be7d285e19f1d8dc0d,54.66558,-3.37254,3922abf4-9b9b-4afd-b2a3-afc6dafd98b3,27
28,"1, Lonsdale Terrace, Cockermouth, Cumbria CA13 0BU",Terraced,2.0,https://www.rightmove.co.uk/house-prices/details/england-85527696-16115053?s=e0b2debd449a99f1c1af3b23805c8f4ffac6b7b8ce6eb48cf27aea3c5dc7850b,54.6597,-3.37544,ea0052d5-06f9-4b7c-8403-9cc931a74a82,28
29,"The Appletree, 86, High Brigham, Brigham, Cockermouth, Cumbria CA13 0TG",Terraced,,https://www.rightmove.co.uk/house-prices/details/england-16115128?s=40e34ea920951a9a0255dc8b6b5019ca2ce1901cd20bbe2849d121a987c9ab05,54.6594,-3.41729,197969e6-c2a5-4980-b949-e6d71c835e60,29
30,"Pwlldu House, Broughton Cross, Cockermouth, Cumbria CA13 0TY",Detached,,https://www.rightmove.co.uk/house-prices/details/england-16720849?s=4f1772c755a0de38ae6e470122561f413b70fd906d90eafbef23da5db131f8db,54.65929,-3.43418,66814b00-1047-4ebf-b109-64facf95c67e,30
31,"70, Brigham Road, Cockermouth, Cumbria CA13 0BS",Terraced,4.0,https://www.rightmove.co.uk/house-prices/details/england-85336731-16115050?s=34b7986599f67873a8a9e17359c39fb8be9fb2a5595021d5ed69d37b9811a3c1,54.65887,-3.37774,dfc9c555-f02e-478d-b823-d275391f05f5,31
32,"9, Woodville Park, Cockermouth, Cumbria CA13 0GW",Flat,,https://www.rightmove.co.uk/house-prices/details/england-16421983?s=f63d7a112460f3523c6931e15d4be7a13594992decd2295d3955a49cf316213f,54.66147,-3.36977,7424d9f2-5de5-477c-8fde-2e6b7c471f13,32
33,"43, Towers Lane, Cockermouth, Cumbria CA13 9EE",Semi-Detached,3.0,https://www.rightmove.co.uk/house-prices/details/england-118522745-16115161?s=8fa96555053b846eb6c2a937ab9461217ac111915c045ef037a009a21f49a585,54.65477,-3.35807,0fbe2012-53a6-4f95-84f4-bafec5ca0996,33
34,"139, Church Meadows, Great Broughton, Cockermouth, Cumbria CA13 0JL",Semi-Detached,,https://www.rightmove.co.uk/house-prices/details/england-16421995?s=6af0d36f5395b445fd8f6f8c2a544745013420c50e61723117dc261cd1472d17,54.67138,-3.43756,b8f212ec-1672-46bd-bc39-0e360e76ab0c,34
35,"45, Castlegate Drive, Cockermouth, Cumbria CA13 9HD",Detached,3.0,https://www.rightmove.co.uk/house-prices/details/england-63834706-16115185?s=30e23814ae3c93676e9d972cfc6566634f128e5505a110c9ac96302d39bc66a9,54.66613,-3.35566,9907f2a6-6a1d-49ab-a2bb-60da02885d17,35
36,"1 And 2, The Woodlands, Blindcrake, Cockermouth, Cumbria CA13 0QP",Detached,,https://www.rightmove.co.uk/house-prices/details/england-16115116?s=a6dadade7443ce38d31c08d3be7c62c0f74951f52b77d7d90d2b66ee21597482,54.70091,-3.32252,6a04a243-13a5-449f-af8d-d17b8792a675,36
37,"183, Church Meadows, Great Broughton, Cockermouth, Cumbria CA13 0JL",Semi-Detached,,https://www.rightmove.co.uk/house-prices/details/england-16421992?s=151ad2cfec8d759bab6ed3241e8fcdd3ad4370f85fe53a8e46ce92e0c5cf1491,54.67138,-3.43756,5d384bee-e7ad-46e8-9f7f-08fab3fd2cb3,37
38,"Sunnyside, Papcastle, Cockermouth, Cumbria CA13 0LA",Detached,,https://www.rightmove.co.uk/house-prices/details/england-16115104?s=081a6f5ac262cbae57aa68a94cb89eaf8474eec26c5c119ef4a43acf7fed5997,54.66969,-3.38214,f170df7a-ee1c-482d-ae86-01d209e1708a,38
39,"4, St Bridgets Close, Brigham, Cockermouth, Cumbria CA13 0DJ",Semi-Detached,,https://www.rightmove.co.uk/house-prices/details/england-16115089?s=f9209fb51acb3fdd5f5a46a9c5acd67f81bd069a6006d9978705bcb210db7096,54.6635,-3.42007,05cf01d9-653d-4b75-9895-cf002880d6d7,39
40,"Hall Bank, Eaglesfield, Cockermouth, Cumbria CA13 0SD",Detached,,https://www.rightmove.co.uk/house-prices/details/england-16720837?s=67673918f5d07f80e9ee5f05db29a4a53cd8161821b506650e1309f21c16cbea,54.64103,-3.40472,7705cfd2-615e-4fd2-9b40-dd0d92648edb,40
41,"36, Slatefell Drive, Cockermouth, Cumbria CA13 9BT",Semi-Detached,3.0,https://www.rightmove.co.uk/house-prices/details/england-121454360-16422040?s=b6a76e99178c4729706d12e5da471143eac2b0c64a86a01370a5df84324b4e64,54.66223,-3.3501,ac7464bb-993f-4e18-a691-ba5035ca6ebb,41
42,"Whitsend, Bridekirk, Cockermouth, Cumbria CA13 0PE",Detached,,https://www.rightmove.co.uk/house-prices/details/england-16115113?s=dda710fd30a72970dd01c08746bf49b8b58a96633132a63faaa57e77b3d32ccd,54.68783,-3.3674,0a4abd09-5916-43f3-a9df-3e11db086db3,42
43,"96, High Brigham, Brigham, Cockermouth, Cumbria CA13 0TJ",Terraced,2.0,https://www.rightmove.co.uk/house-prices/details/england-123373853-16115131?s=7a85a6c2b1069343443e1c27ab0a8ff1fec852a928bb541ecf47fb23816f2be6,54.65965,-3.41916,e392e317-3ac0-4206-9868-d98b47b58e83,43
44,"16, Bellbrigg Lonning, Cockermouth, Cumbria CA13 9DA",Semi-Detached,3.0,https://www.rightmove.co.uk/house-prices/details/england-124032341-16115152?s=c4d282fe1bf3238599fa962bbaf5d53650b55bbaa5f05500c07993c4c8d119b0,54.65998,-3.35049,ab1a351c-06a9-4a20-ae59-d61bb2c3a78a,44
45,"The New House, Derwent Park, Great Broughton, Cockermouth, Cumbria CA13 0YS",Detached,3.0,https://www.rightmove.co.uk/house-prices/details/england-122708240-16115140?s=25d1dfbbc9601ccf4068848c0347a531c4ec7378c07ffea1a5bb62989dcb1fda,54.66814,-3.43837,52fc67f7-ccbe-44b3-a3eb-94dc6324d7b2,45
46,"3, Graves Mill, Waterloo Street, Cockermouth, Cumbria CA13 9NB",Flat,,https://www.rightmove.co.uk/house-prices/details/england-16115194?s=bd93a3c36e5c49b9a85847452d41de3fd9af2b516149c71557f45ae674dc87c2,54.6643,-3.36599,80c3861c-07f6-4ea4-b686-f5ef8e79129a,46
47,"The Mill, Wythop Mill, Embleton, Cockermouth, Cumbria CA13 9YP",Detached,,https://www.rightmove.co.uk/house-prices/details/england-16115197?s=fa984b009ec01aee06862ccb6a80a2c66bc51a62606afe0c174fc18de054d70a,54.65666,-3.27582,c48674ec-4baf-4477-8c6d-756934c2b675,47
48,"44, Melbreak Avenue, Cockermouth, Cumbria CA13 9AT",Semi-Detached,3.0,https://www.rightmove.co.uk/house-prices/details/england-124032521-16115143?s=19b8bef8e6114e687eaed2dca42a40651bf4dbc041758ff92fcc3c3111235de9,54.66147,-3.35395,28a53606-e7f8-49d9-9ef4-c32823d4c558,48
49,"86, Church Meadows, Great Broughton, Cockermouth, Cumbria CA13 0LF",Semi-Detached,,https://www.rightmove.co.uk/house-prices/details/england-16422007?s=5619a3d051acf10b983164c1d0d8fce447447f7bc7541244040fae0c6cbb6b5a,54.67104,-3.43615,bc61b7ca-f83b-47d4-b341-d144c47a9424,49
50,"27, Gable Avenue, Cockermouth, Cumbria CA13 9BU",Detached,2.0,https://www.rightmove.co.uk/house-prices/details/england-121455464-16422043?s=5bd5a6c80f9da83b6fe294c5fa3dbe35830c20faa56dd288843227c6c9a999e6,54.66191,-3.34684,0afbb653-12d7-409e-a60f-c4b76db69eed,50
51,"32, Gable Avenue, Cockermouth, Cumbria CA13 9BU",Detached,3.0,https://www.rightmove.co.uk/house-prices/details/england-121324652-16115146?s=a7ae48ca0acb3173a0a87a5329fbe360e42339813fee77ed862c9f3cdf3e87b7,54.66191,-3.34684,c5069401-4769-4dc1-946a-66b35a3f2db4,51
52,"15, Ennerdale Close, Cockermouth, Cumbria CA13 9BN",Terraced,3.0,https://www.rightmove.co.uk/house-prices/details/england-120475439-15799525?s=77723d8dbe946ae8b847cdb82aed72b0bfdbbbe48009ef582ccf2a3ede43dc6b,54.66233,-3.34949,428dd071-82da-40df-8c3e-87855c997be2,52
53,"Flat 2, The Old Courthouse, 2, Main Street, Cockermouth, Cumbria CA13 9LQ",Flat,,https://www.rightmove.co.uk/house-prices/details/england-16115191?s=b38674c1a2beaf7860803e9e3bcd92d4b8bb32fb645cd73c091ee887eefb8611,54.66388,-3.36349,6973e372-7be3-417c-bc10-d52454e4e0d9,53
54,"7, Gable Avenue, Cockermouth, Cumbria CA13 9BU",Detached,3.0,https://www.rightmove.co.uk/house-prices/details/england-122018753-15799528?s=277602c7d3ec1c023928f2c4aadf73b8850eacaffdaf62db231cfa1276eefbe2,54.66191,-3.34684,41f60c9a-0fa3-45fc-a56f-d856415970d1,54
55,"7, Cragg Close, Deanscales, Cockermouth, Cumbria CA13 0RL",Detached,4.0,https://www.rightmove.co.uk/house-prices/details/england-120097178-15799507?s=2b09f089bd8dba4bc0685e2af7770c31fbc747ac484b4d8afd92dd1b6c466369,54.62601,-3.40544,f1b95d0f-9fe5-4645-8277-0d1a3d41ee84,55
56,"31, Main Street, Greysouthen, Cockermouth, Cumbria CA13 0UL",Semi-Detached,3.0,https://www.rightmove.co.uk/house-prices/details/england-117078380-16720858?s=39b639f1462a0e6bcfd31591a7b2064b25757d0de4eedc79c2317d0ce30b19f2,54.64663,-3.44071,672a91bb-834c-4843-91c8-9cc97bca7082,56
57,"4, Culgarth Avenue, Cockermouth, Cumbria CA13 9PL",Semi-Detached,5.0,https://www.rightmove.co.uk/house-prices/details/england-122762699-15799543?s=2475e3ec07815e88aa3951125b799b51bd6062aedd64d3e78e11701b3d8307ad,54.65881,-3.35852,53d80ae1-ffd8-4697-9bff-ea593b48efdc,57
58,"4, Chapel Court, New Street, Cockermouth, Cumbria CA13 0ES",Terraced,,https://www.rightmove.co.uk/house-prices/details/england-16115092?s=a595ba1062d3aad245f22588df89bb2135d92b04dc8e7ef4ba88ada223ff721b,54.66273,-3.37027,28977274-7595-4257-8b37-ff810a0dd3ac,58
59,"11, Evening Hill Drive, Cockermouth, Cumbria CA13 0BP",Semi-Detached,3.0,https://www.rightmove.co.uk/house-prices/details/england-24373287-16115047?s=25c0cc05eee3d48e4741726e24387d6eefdf865713337a9b2df01c4186011971,54.65753,-3.37707,865c5288-ef8d-4abb-89bb-9923ae916a8d,59
60,"27, Church Meadows, Great Broughton, Cockermouth, Cumbria CA13 0LE",Detached,3.0,https://www.rightmove.co.uk/house-prices/details/england-118616828-15799492?s=ef044134abcd805af3552430afa5dc5e4a54e9c78612fbc64a64766188d71ac1,54.67006,-3.43565,62f00b38-aa20-4639-849b-dd5c758b6ff9,60
61,"5, Horsman Court, Cockermouth, Cumbria CA13 0HQ",Flat,2.0,https://www.rightmove.co.uk/house-prices/details/england-127664726-15799483?s=e63bca071afef16a5c727dd51861c5281edbca10e2420b8e3ff6ae633707e361,54.66307,-3.37184,c177cacd-605a-4e43-a663-71c11d4558c7,61
62,"2, Broomcroft, High Lorton, Cockermouth, Cumbria CA13 9UL",Semi-Detached,,https://www.rightmove.co.uk/house-prices/details/england-15799546?s=b9ea9a197b926110c221c3c0ce29cc14991a6d53cd345da9a08bcb45805d54ed,54.61832,-3.30575,a47e52df-e960-4d8a-8405-e3da3f898811,62
63,"Apartment 5, Lancaster Court, Isel Road, Cockermouth, Cumbria CA13 9GW",Flat,,https://www.rightmove.co.uk/house-prices/details/england-17642146?s=c6b11cbce46de48b0a7de80d741854acf10538501b7a1fec0d87fada0cd0deab,54.66672,-3.35878,4cffc79f-1fca-477a-b0c0-5a452a28d1c0,63
64,"6, The Fallows, Cockermouth, Cumbria CA13 0ET",Flat,2.0,https://www.rightmove.co.uk/house-prices/details/england-119875394-16115095?s=b93139a964b761244bba4821fc88e46fc2b887bd1d6fed402ee67eed0bde6c9a,54.66255,-3.3698,c3bbd5b4-71ba-4a34-a8ab-7edba9aa45b2,64
65,"10, Kirklea, Little Broughton, Cockermouth, Cumbria CA13 0NB",Semi-Detached,3.0,https://www.rightmove.co.uk/house-prices/details/england-121198193-17949574?s=12d541db9374835438bb8cb0f07bd29178f6b7e4fd4de486fb3182b8ea31d9c3,54.67188,-3.43385,2a8152c6-58fd-4590-b90e-d87ede2e40a1,65
66,"20, Lorton Street, Cockermouth, Cumbria CA13 9RH",Terraced,,https://www.rightmove.co.uk/house-prices/details/england-17949649?s=e70ef984cc20a20b1cecd99f5eb55c85c408f451d3064e03bf83eba3abbfb4f1,54.66145,-3.36387,8f317098-29ba-4d42-8a92-e435ad50cc31,66
67,"Ennerdale View, Little Broughton, Cockermouth, Cumbria CA13 0YG",Detached,,https://www.rightmove.co.uk/house-prices/details/england-15799519?s=0a6288ae42a01aa43652ae4f3a9101c382c9d2215e7e79aa305695da34651cd6,54.67363,-3.42973,1182e775-35ab-4cb7-90f3-1b180e75430d,67
68,"1, Derby Villas, Cockermouth, Cumbria CA13 9RA",Semi-Detached,,https://www.rightmove.co.uk/house-prices/details/england-15497662?s=74535e8358019f2aa33f0b5f4298380eb5a7b22df0b8e28a563f957fcd8a4972,54.66218,-3.3625,b7e453bd-2ca9-4112-8f60-3f2bf41c8e0f,68
69,"1, Horsman Court, Cockermouth, Cumbria CA13 0HQ",Flat,2.0,https://www.rightmove.co.uk/house-prices/details/england-126415121-15497590?s=9e50cb673a0931d9b2cf21526153c16381b8844b3cfd4d819ccbc6e7fd42534e,54.66307,-3.37184,f3e34834-fbe4-42c5-abc7-302146a12607,69
70,"15, Derwent Row, Broughton Cross, Cockermouth, Cumbria CA13 0TZ",Terraced,3.0,https://www.rightmove.co.uk/house-prices/details/england-102750386-15799510?s=872fb50bf56a7472f303c81132c05636c67e5f1591508ebbfadc11362d24a902,54.65863,-3.43711,2d070894-44d8-45f3-8484-9c7a4cc57866,70
71,"17, Woodville Park, Cockermouth, Cumbria CA13 0GW",Flat,2.0,https://www.rightmove.co.uk/house-prices/details/england-55164958-15799480?s=58a4b6ed6b89ec2107ada88e752d4fcbcfc7acea7e75610fa88932a87a7b75f3,54.66147,-3.36977,1c2d849d-5ecb-4b09-82aa-e64e0281d279,71
72,"2, Belle Vue, Papcastle, Cockermouth, Cumbria CA13 0NT",Terraced,3.0,https://www.rightmove.co.uk/house-prices/details/england-122352101-16115110?s=4bee69b4815a5c8440b99849a1290125f2e249446278074bd0d4197d27ba7c61,54.67297,-3.37837,5a164bfd-2238-4415-81e3-bad60451cb21,72
73,"Flat 102, Wordsworth Court, Sullart Street, Cockermouth, Cumbria CA13 0EB",Flat,2.0,https://www.rightmove.co.uk/house-prices/details/england-118542293-15799474?s=1d00aee35d3d7b405bde76d03400a0691335fdfc4374a5c08427121a8a8e995a,54.66248,-3.3684,2101fd12-69e9-4616-be88-d1f7687d8a13,73
74,"43, Simonscales Lane, Cockermouth, Cumbria CA13 9EH",Semi-Detached,4.0,https://www.rightmove.co.uk/house-prices/details/england-122345777-15497641?s=6a43b5a7c298792f23dccc1ff71c66e49200198741cf682ee7be3eea8c6486b1,54.65449,-3.35946,b6a8da47-0c1c-48be-a623-c7d99673148e,74
75,"38, Kirklea, Little Broughton, Cockermouth, Cumbria CA13 0LZ",Semi-Detached,3.0,https://www.rightmove.co.uk/house-prices/details/england-122024186-15497596?s=481ead8050aae2e9798b329e60aa816c33af2c7ca7da56f5e8cc9ab7284080c4,54.67259,-3.43465,a0c36f07-1531-4112-9893-f86cd0669bf3,75
76,"18, Greyrigg Avenue, Cockermouth, Cumbria CA13 9EJ",Detached,3.0,https://www.rightmove.co.uk/house-prices/details/england-117142799-15799534?s=1ee4767483e69c4357d642cfaaa831e7a3581cdcd51ca664a47b42ae6b0bce13,54.6558,-3.36306,5c17ff3a-4dd5-4e7d-b435-7fef24a08078,76
77,"30, Fletcher Close, Cockermouth, Cumbria CA13 0HB",Flat,2.0,https://www.rightmove.co.uk/house-prices/details/england-99372563-15497587?s=d571983381abd2705dc8671bb8e4c9bb79f46246bc96aa6e4d1d22cd89d01cec,54.6627,-3.3726,78324b94-cdfa-4d6f-a808-5994ed0c1bb0,77
78,"4, Church Meadows, Great Broughton, Cockermouth, Cumbria CA13 0LF",Semi-Detached,2.0,https://www.rightmove.co.uk/house-prices/details/england-115166195-15799498?s=9f29d6ab2d81315cb3ea2a0c4b3e732d47a6807f2a53e605b3706c622ce4fd10,54.67104,-3.43615,22f3f31a-07a1-407e-8571-c13c27adfa28,78
79,"6, Spring Croft Close, Brigham, Cockermouth, Cumbria CA13 0TH",Terraced,2.0,https://www.rightmove.co.uk/house-prices/details/england-52245348-17949595?s=d61b88b44bfa228670d154c6c31bc1b48159aa6c1cd776614464eee769b572cb,54.6584,-3.41819,f835103e-7e47-48c9-bc9e-fa25dd2a8793,79
80,"9, Mosser Avenue, Cockermouth, Cumbria CA13 9BA",Semi-Detached,3.0,https://www.rightmove.co.uk/house-prices/details/england-120164084-15497635?s=dd2f1d548a5cc7ece81de56ca00a5b946aee1ac6f311338a1891466cc5b9b0de,54.66114,-3.35146,fc39f831-6055-460f-af79-a6be45408fd0,80
81,"Apartment 1, Lancaster Court, Isel Road, Cockermouth, Cumbria CA13 9GW",Flat,,https://www.rightmove.co.uk/house-prices/details/england-17642143?s=871039d858b7ebc1b87c1c250b794357f39c4ae28d0b4731e7df4c2ac69dce41,54.66672,-3.35878,096850b2-b56f-428e-b388-32e7570f50fc,81
82,"75, Ghyll Bank, Little Broughton, Cockermouth, Cumbria CA13 0LW",Semi-Detached,3.0,https://www.rightmove.co.uk/house-prices/details/england-119674388-15799501?s=7cc0e6b766feebf5239145796c9a3d79b156916f4ed995ec968368ed5c637325,54.67126,-3.4329,bb01f4ef-9a64-48d4-babb-4c150d658218,82
83,"61, Church Meadows, Great Broughton, Cockermouth, Cumbria CA13 0LE",Detached,3.0,https://www.rightmove.co.uk/house-prices/details/england-71877867-16976491?s=3156ecdd9d1f61f43386fe85849a11c3001ba1010fe5876e19038862a44905a7,54.67006,-3.43565,db91a08d-e4b7-4093-aa2a-0c2679a1da4d,83
84,"3, Rook Farm Close, Tallentire, Cockermouth, Cumbria CA13 0PH",Detached,4.0,https://www.rightmove.co.uk/house-prices/details/england-122891366-15497605?s=46db2bba07a87eed944b280283ecb3e10dc215f95837713609256130d589073a,54.70504,-3.38753,cda93b79-161a-44e5-8d16-3f822f4e7ac5,84
85,"1, High Sand Lane, Cockermouth, Cumbria CA13 9NA",Terraced,2.0,https://www.rightmove.co.uk/house-prices/details/england-119552663-15497650?s=325c61ee1bbcfd38d1ff65bcc183fdefcb1663a3d853ffdf8bc1188148de1030,54.66422,-3.3649,51f5e043-4392-43ab-b77c-44a4cfe320ca,85
86,"21, Henry Street, Cockermouth, Cumbria CA13 0AT",Terraced,3.0,https://www.rightmove.co.uk/house-prices/details/england-119300072-16976461?s=1aacbcc538ab4cc36228e7b486b073398569588441dd11ba1e806573467c2f20,54.6593,-3.37109,1b546135-5980-41eb-8071-72b84937ad03,86
87,"Lime Field, Dovenby, Cockermouth, Cumbria CA13 0PN",Detached,,https://www.rightmove.co.uk/house-prices/details/england-15799504?s=86b0f11e492990810e1146e6b42b72eeaf0f7e0cd5d231fe5069cc46439456fa,54.68693,-3.40677,444b7ca4-9484-498b-a3f1-547ad8ccce2e,87
88,"26, Beech Lane, Cockermouth, Cumbria CA13 9HQ",Detached,3.0,https://www.rightmove.co.uk/house-prices/details/england-116231345-15497647?s=58b11127f645af118e42e75e850e906cc59e2a088a8f7e9fd0d1175728327756,54.66821,-3.35402,a9bdc2b0-8d4e-4613-9303-8b70114ee155,88
89,"10, The Nook, Great Broughton, Cockermouth, Cumbria CA13 0XD",Terraced,2.0,https://www.rightmove.co.uk/house-prices/details/england-66946440-15497620?s=ff0d94418ac5acddfc6e5dc3d4cd7cd003c22302bff44c05ca0203c4b295dd2b,54.66754,-3.43587,c25b6a11-563a-41f4-a617-25e566a3390f,89
90,"15, Dale View, Cockermouth, Cumbria CA13 9EN",Detached,4.0,https://www.rightmove.co.uk/house-prices/details/england-122277659-16115164?s=ee1c3dec9c1776881f3b0b78d7fa18ea0abaf5bb0d23b1b76734882d949f7198,54.65697,-3.36279,cc2cd15a-e21d-43f0-8e7f-d3bc4b2119e6,90
91,"19, Dunmail Crescent, Cockermouth, Cumbria CA13 0AG",Flat,2.0,https://www.rightmove.co.uk/house-prices/details/england-88651822-16976458?s=8ed100a35da16d25485b0c02157bba7d0e301ec679baaa317888f92bdeb566d7,54.66098,-3.37394,3a071929-abbc-4acd-8a2c-2ac8541de8a3,91
92,"6, St Bridgets Close, Brigham, Cockermouth, Cumbria CA13 0DJ",Semi-Detached,,https://www.rightmove.co.uk/house-prices/details/england-16421974?s=9c3002867bb224ea3bc5e5b25c33fd129083067e5b1577e2e824bee68a8d0bc0,54.6635,-3.42007,0b2bbd68-1a74-4086-9e5d-dfe079249a52,92
93,"51, Main Street, Greysouthen, Cockermouth, Cumbria CA13 0UL",Terraced,2.0,https://www.rightmove.co.uk/house-prices/details/england-109634069-17306209?s=a23a9f58368deb9868ffe1548f01f7e66fab10b7b5cd7b691719ae401426f596,54.64663,-3.44071,0f4e4ee7-2cec-42e5-9b6f-a4f880bae88b,93
94,"Flat 113, Wordsworth Court, Sullart Street, Cockermouth, Cumbria CA13 0EB",Flat,2.0,https://www.rightmove.co.uk/house-prices/details/england-117865853-17306158?s=9e46c57fefa81bc95872cffd2200943a812f263a1c3ebe52cfa1f1ba6c770782,54.66248,-3.3684,e02c5f45-6e80-4a8f-9f13-4129b767587d,94
95,"29, Strawberry How Road, Cockermouth, Cumbria CA13 9ZD",Detached,,https://www.rightmove.co.uk/house-prices/details/england-15192433?s=1a2b9853497eae29d24a8244355f6a1dfd5b41bb336587474c370a51c642725c,54.65714,-3.34776,aed69489-0706-42a3-b863-3f582b196d77,95
96,"23, Mayo Street, Cockermouth, Cumbria CA13 0BY",Semi-Detached,4.0,https://www.rightmove.co.uk/house-prices/details/england-120046607-15497563?s=e9bd9ac6351a904529b5ecd16a7fd16e56bb8085a6c0d577d214ebcef1d624c9,54.65988,-3.37591,5fa31808-ecf9-4973-8a83-01898ec76563,96
97,"Apartment 28, Lancaster Court, Isel Road, Cockermouth, Cumbria CA13 9GW",Flat,,https://www.rightmove.co.uk/house-prices/details/england-16115182?s=e49315dafd80213a074e91f3e0b8393ba9f538594cc333dde4af9767673d7f9c,54.66672,-3.35878,c0647a3b-cd61-4551-b630-a5a8ac599d15,97
98,"11, Fern Bank, Cockermouth, Cumbria CA13 0DF",Terraced,4.0,https://www.rightmove.co.uk/house-prices/details/england-122021477-17306152?s=c5c8b14ce022e04bee7cbeb5f4ddc982037f187882d211c944db47d70502532c,54.65953,-3.36676,7332297d-b159-49e0-983b-c22db2c0faf3,98
99,"4, Challoner Court, Cockermouth, Cumbria CA13 9RN",Detached,2.0,https://www.rightmove.co.uk/house-prices/details/england-120072242-17642161?s=35fd992f1522a56f7030f509f63ac607699370b4b194e17fabc155d205418921,54.66183,-3.36249,57d3dc64-6f4f-4680-bff8-d6fb14e5a9cc,99
100,"11, Cedar Lane, Cockermouth, Cumbria CA13 9HN",Semi-Detached,2.0,https://www.rightmove.co.uk/house-prices/details/england-62725709-15192415?s=8de25ab99c73c4b82cd7afbcbf2a0502509decf4c6772208420e62c99738a05b,54.66819,-3.35635,983ab270-fb3a-4f13-a674-79396716427c,100
101,"9, Derwent Row, Broughton Cross, Cockermouth, Cumbria CA13 0TZ",Terraced,,https://www.rightmove.co.uk/house-prices/details/england-16422016?s=386166bbef72efcd20c9ae418fc2a5cc84b0fbde9457fe8a156ede503d51afd8,54.65863,-3.43711,a91f0fa1-2c1e-437f-a0fe-4e1f4528a560,101
102,"7, Horseshoe Drive, Cockermouth, Cumbria CA13 9FJ",Detached,,https://www.rightmove.co.uk/house-prices/details/england-15497644?s=396f89872daf5ad587e84a7f3a5230e7fc9de3a1b442748103c70c6aef9daf43,54.65955,-3.34924,a1b75fe5-2a5b-4d53-b945-9bfd7695eace,102
103,"18, High Brigham, Brigham, Cockermouth, Cumbria CA13 0TE",Terraced,2.0,https://www.rightmove.co.uk/house-prices/details/england-106839698-15192376?s=abe7d7ef760d0a74f019bf7972d9eafb90755462dc845e219353fa8884393d74,54.65926,-3.41341,c0dc9352-3669-49a2-ac6d-65cdccb248b7,103
104,"6, Sonnets Way, Cockermouth, Cumbria CA13 0ZF",Semi-Detached,,https://www.rightmove.co.uk/house-prices/details/england-15192391?s=12a46505c96403c499942173964fd8afbd038d3d7a269a844752f675ae92091b,54.66405,-3.38846,336d5219-f4d1-4ee0-93c8-1d879ea36983,104
105,"8, Norwood Drive, Cockermouth, Cumbria CA13 9EP",Detached,3.0,https://www.rightmove.co.uk/house-prices/details/england-119482508-16115170?s=fa0de17b759c17b03393efe8af4ac2cdf34273986b21beb65ccb3a9ac31ecd93,54.65808,-3.35989,e4d161bb-b12f-4dc8-a502-d8c6df7f3f13,105
106,"14, Hill Crescent, Brigham, Cockermouth, Cumbria CA13 0TR",Terraced,4.0,https://www.rightmove.co.uk/house-prices/details/england-119992820-16115134?s=c73813d97f754e1978e2e280ff85f797e8f9fca982523201fa8e4b1d0c4f72dc,54.65977,-3.42397,db458ac6-8b2c-4e85-a1fe-24fb7bcc418b,106
107,"5, New Street, Cockermouth, Cumbria CA13 0EP",Terraced,3.0,https://www.rightmove.co.uk/house-prices/details/england-117878822-16421977?s=fbf6d4cf8593732e1448b4bffffe76e804738f79ba78dbe09f3472d624449507,54.66255,-3.37027,5b6f76fd-fb0d-45eb-916e-ec1a934e5d21,107
108,"15, Ghyll Bank, Little Broughton, Cockermouth, Cumbria CA13 0LH",Semi-Detached,3.0,https://www.rightmove.co.uk/house-prices/details/england-45487606-15192373?s=a1add4fc8995324e88e937abec5907eaab3024bd388e77ae2f2b2918de5cd12c,54.66974,-3.43207,8672e65f-75ca-4997-a308-f134471061d0,108
109,"8, Beckside, Eaglesfield, Cockermouth, Cumbria CA13 0SQ",Semi-Detached,3.0,https://www.rightmove.co.uk/house-prices/details/england-119542094-16115122?s=ee744ccbae467ca67fd264e66c5cdc1189db656c57247f180f8eb7eb787c0bfe,54.64061,-3.40238,41c7091f-0917-4ad5-8632-126317a13b83,109
110,"6, Butterfield Close, Brigham, Cockermouth, Cumbria CA13 0ZR",Detached,,https://www.rightmove.co.uk/house-prices/details/england-15192394?s=b82a35469fa656cd69894bfd69b6c34cab444f60723312e9d999e66a737c7275,54.65766,-3.41955,56a45d90-77ff-47ee-a721-5bb855000be0,110
111,"3, Romely Place, Cockermouth, Cumbria CA13 0AF",Semi-Detached,3.0,https://www.rightmove.co.uk/house-prices/details/england-120340424-15192349?s=589909df189803d54b1e9bb4d1327ed422937ac465fa0fae32669e000b920db7,54.65975,-3.37079,b067d6d5-1fae-44d5-bd60-4623c5dccd8c,111
112,"4, Went Row, Greysouthen, Cockermouth, Cumbria CA13 0UR",Terraced,,https://www.rightmove.co.uk/house-prices/details/england-15192385?s=960a7fb6057f40219f15a302daf9e43516783f449578280e5462a83f313df8a6,54.64771,-3.44075,9f6550dc-4d5d-4f06-bd66-db93684aad12,112
113,"22, The Hill, Brigham, Cockermouth, Cumbria CA13 0TP",Semi-Detached,2.0,https://www.rightmove.co.uk/house-prices/details/england-79368003-17642107?s=46fbf70359bd63f3b98fec24c0749c6f2a3f852101877d03b04bc85f3ac47437,54.66033,-3.42228,791a5af4-d9b1-4aa1-b164-cac76a59eba4,113
114,"2, The Close, Cockermouth, Cumbria CA13 0AS",Terraced,,https://www.rightmove.co.uk/house-prices/details/england-15192352?s=d528ad15e27fc4ea07da1dfa7334b7804b0017df70a74c2c812d7cf290edf5d5,54.65902,-3.37185,f6cb8a9c-705c-4c48-9fcc-3f9a822eebef,114
115,"Birdinhand, Papcastle, Cockermouth, Cumbria CA13 0JR",Terraced,,https://www.rightmove.co.uk/house-prices/details/england-15192367?s=3125fc2060d4741d2a2b5879d9aec958f1b4517d67321450b36b7bfa6812a660,54.6687,-3.38241,244ffa6d-0f16-4bae-bf18-485d011891f8,115
116,"8, Fell View, Cockermouth, Cumbria CA13 9PQ",Semi-Detached,3.0,https://www.rightmove.co.uk/house-prices/details/england-21721782-15497656?s=30b855961ab2975330f14ab01f7df46961dbc12e4aef790a79b44df463ee2968,54.66134,-3.35798,e24c857a-c3da-4abd-8a97-460e418e269d,116
117,"Linden House, Papcastle, Cockermouth, Cumbria CA13 0LA",Semi-Detached,,https://www.rightmove.co.uk/house-prices/details/england-17306176?s=48e257421391ff1910a6be556f4564da9dca9bdf113fbde6a86bdab8914a72d1,54.66969,-3.38214,baee9e7b-e91d-41e6-a9a1-ef432c5ec390,117
118,"7, Cocktons Yard, Cockermouth, Cumbria CA13 9LN",Terraced,1.0,https://www.rightmove.co.uk/house-prices/details/england-72048697-14896039?s=167ebdf10bb79015b4419a0bb61309c8bf138dbf0a2f58e0204f1dbde94b2ed8,54.66403,-3.36613,1c2fe6cf-ea24-4dfd-9af3-51d09869f1f3,118
119,"Apartment 2, Lancaster Court, Isel Road, Cockermouth, Cumbria CA13 9GW",Flat,,https://www.rightmove.co.uk/house-prices/details/england-16720897?s=d24ac67ff8e8b3e1899a47b2fb4c5705d0da162dc3ddf6a84dc7de124b196ba9,54.66672,-3.35878,44a48bbd-3a6a-4ef8-8b7f-b07f662ca948,119
120,"Apartment 34, Lancaster Court, Isel Road, Cockermouth, Cumbria CA13 9GW",Flat,,https://www.rightmove.co.uk/house-prices/details/england-16720900?s=cdae5e691f378915280b0fc93a03a782417ebef5322b30f6efb9fcb0a493847e,54.66672,-3.35878,5a0bb583-5ece-4ac8-aa83-6cd5a4b3e98c,120
121,"23, Low Road Close, Cockermouth, Cumbria CA13 0GU",Terraced,4.0,https://www.rightmove.co.uk/house-prices/details/england-117311123-17306164?s=7abdf7372b662d83d4741daaf304797275daf86aa60a46e538e5e358f7601b00,54.6624,-3.37522,9995ae0b-60cf-4160-bd2b-4607edc17923,121
122,"Apartment 22, Lancaster Court, Isel Road, Cockermouth, Cumbria CA13 9GW",Flat,,https://www.rightmove.co.uk/house-prices/details/england-16720894?s=9eb88291d2e58200d6ce33d7efed68128802953b29ea91b588c251ab50e0b4e6,54.66672,-3.35878,163fb9b7-eb91-42fe-ac2c-a0c439475e91,122
123,"24, Crown Street, Cockermouth, Cumbria CA13 0EX",Terraced,,https://www.rightmove.co.uk/house-prices/details/england-15192361?s=191dca23fe76bd448659c72993b4ebeb135d430f6877304f6ebdf4dccd28e03b,54.66326,-3.37076,d2040a7e-329e-42df-9cf1-cffe1e172ac9,123
124,"8, Derwent Row, Broughton Cross, Cockermouth, Cumbria CA13 0TZ",Terraced,3.0,https://www.rightmove.co.uk/house-prices/details/england-123663824-15192382?s=d27401b384ae4a7812864269dd7137b49de5e083d42226508b38293cade4b698,54.65863,-3.43711,4d1d84a8-75b4-4b24-befd-175e5b012c2a,124
