,address,propertyType,bedrooms,detailUrl,location_lat,location_lng,property_id,index
0,"Flat 41, Elder House, 4, Water Lane, Kingston Upon Thames, Greater London KT1 1AE",Flat,,https://www.rightmove.co.uk/house-prices/details/england-16199290?s=471c428ad23eac69bcbada57344bb0e3ce0d6bd87e2c7fd5e61aae17ca4814c2,51.41256,-0.30738,015b3b46-5ac1-4bcc-8572-f46d2c28fad0,0
1,"Flat 25, Effingham Lodge, Surbiton Crescent, Kingston Upon Thames, Greater London KT1 2LN",Flat,2.0,https://www.rightmove.co.uk/house-prices/details/england-122033360-16199296?s=af43d0d2cf3332338716e2dd8e6685e45a8df8e0c787d51eff3677e7127b8dfa,51.39868,-0.30517,c2675f6c-a95b-4a9e-b69c-6b24b377017b,1
2,"51, Park Road, Hampton Wick, Kingston Upon Thames, Greater London KT1 4AS",Terraced,3.0,https://www.rightmove.co.uk/house-prices/details/england-85334448-17066335?s=bbc1c8fecfc88cce9744a2f862c4f12e4edeb7743c363444d8dc0a92b7a30eb8,51.41318,-0.31283,7a6079f1-38ba-4961-94e1-816337378382,2
3,"18, Caversham Road, Kingston Upon Thames, Greater London KT1 2PX",Terraced,3.0,https://www.rightmove.co.uk/house-prices/details/england-122896376-16199308?s=81c52f83b37210a1dd445f24b61a34b07e85e3e136e165cbd8cb5fc1c35bbef2,51.40989,-0.29713,aaf8dae8-f75f-40b4-86e9-d48e7a9eb6f8,3
4,"Flat 59, Park Court, Park Road, Hampton Wick, Kingston Upon Thames, Greater London KT1 4AX",Flat,2.0,https://www.rightmove.co.uk/house-prices/details/england-29434945-17726434?s=68afbc7dad75bbb94366827803bfe8a77a67d3526791e7c5eb3e7ea1fdf485b5,51.4142,-0.31495,57ae2927-4071-4c0e-a7f4-ddbf0a63230a,4
5,"23, Seymour Road, Kingston Upon Thames, Greater London KT1 4HN",Detached,5.0,https://www.rightmove.co.uk/house-prices/details/england-88815385-16199386?s=746d4845b606f812994d91925bf5475da72abd5945db5a2b1bcbb47b8de32890,51.41505,-0.31175,adf45e58-861f-4373-aa41-839abd094017,5
6,"4, Vineyard Row, Hampton Wick, Kingston Upon Thames, Greater London KT1 4EG",Terraced,4.0,https://www.rightmove.co.uk/house-prices/details/england-123091625-16199377?s=9406b539fb722eb0477bcff922819672cf04ba636d303a91bbcd9ab79c10741b,51.41448,-0.31565,1c94af04-f197-4b84-8f13-2f1e37ae38cc,6
7,"Apartment 5, Parkgate, 9, Hampton Court Road, Kingston Upon Thames, Greater London KT1 4AE",Flat,,https://www.rightmove.co.uk/house-prices/details/england-16506247?s=5c550bed87c1e93d7ecc95c3e45056e7377f54b72272a168f349494e773ef332,51.41083,-0.31219,f126c372-4a45-4567-b96c-fe0285d882c0,7
8,"Flat 4, 1a, Vicarage Road, Hampton Wick, Kingston Upon Thames, Greater London KT1 4EB",Flat,,https://www.rightmove.co.uk/house-prices/details/england-18030592?s=f1c9999e204e6dc94ede8cc579bf948dccc43ab9897670eccacc776d64de7069,51.41492,-0.31535,6b12b288-0757-43bf-9289-33f4da9eae02,8
9,"Flat 14, Pyramid Court, 99, Hawks Road, Kingston Upon Thames, Greater London KT1 3DX",Flat,,https://www.rightmove.co.uk/house-prices/details/england-16506223?s=580109178d1d542d6b6cf9309e8e8f34798bf90f49766ddf9e30041d7f27098c,51.40961,-0.28966,46753b25-8e60-458a-b7df-75f7bb8ded25,9
10,"12, Caversham Road, Kingston Upon Thames, Greater London KT1 2PX",Detached,3.0,https://www.rightmove.co.uk/house-prices/details/england-122904854-16199305?s=fb1510908e0666853d7c34614fb06860dcd434db13e116cb820b0791cd0e517a,51.40989,-0.29713,3ca30b1f-a879-4ca5-b504-628df2aa39fe,10
11,"Flat 10, Tabard House, 22, Upper Teddington Road, Kingston Upon Thames, Greater London KT1 4DT",Flat,,https://www.rightmove.co.uk/house-prices/details/england-16199374?s=4f8046fd84d162d16c8d4e2b753bc929a017115ba1bc71f443f75d5f61fac55e,51.41652,-0.31385,076d5fd6-7c2c-4e05-b35d-377180961047,11
12,"Flat 2, Falconry Court, 7, Fairfield South, Kingston Upon Thames, Greater London KT1 2UR",Flat,,https://www.rightmove.co.uk/house-prices/details/england-16199335?s=aae9e22d6a767ef438cdf35a3d1b2a801c88842216da277c0a37d1fa471fbdb1,51.4075,-0.29952,39395b01-673b-436f-a159-87eb6ee16356,12
13,"14, Geneva Road, Kingston Upon Thames, Greater London KT1 2TW",Semi-Detached,5.0,https://www.rightmove.co.uk/house-prices/details/england-120115076-16199332?s=4e772b424ef7a25209f2d15b0cbcf77d8b364c5791ba8946144c15840ce5af76,51.40165,-0.29916,91e328ab-b19d-4599-9675-98b07f0da0fe,13
14,"45, Mill Street, Kingston Upon Thames, Greater London KT1 2RG",Semi-Detached,4.0,https://www.rightmove.co.uk/house-prices/details/england-113091467-16199317?s=a70108ae452fc09160065761c52b17632a4a074603cb32ce01c4a5187262bfcf,51.40604,-0.29828,56a86c48-f38f-472a-91fe-380f604068d0,14
15,"Ground Floor Flat, 55, Grove Lane, Kingston Upon Thames, Greater London KT1 2SR",Flat,1.0,https://www.rightmove.co.uk/house-prices/details/england-53412618-16199323?s=0fe1eeddb4ffe75b6772698ed5bc3ce08d978767f8fb21043bb9f6be63b5fd79,51.40214,-0.29584,d05772b7-a51e-40db-a5a1-edd6298a6875,15
16,"1, Kelton Villas, Kingston Upon Thames, Greater London KT1 3BZ",Semi-Detached,,https://www.rightmove.co.uk/house-prices/details/england-18030559?s=cd046cb3f5c062acad2123e2607f01ad79c8d6e32d37ac82e61a296af8075911,51.40787,-0.29419,204a5fff-ac6a-4da8-bf70-3945acaa0b80,16
17,"Flat 20, Tabard House, 22, Upper Teddington Road, Kingston Upon Thames, Greater London KT1 4DT",Flat,,https://www.rightmove.co.uk/house-prices/details/england-16199371?s=ffc2e125a2bfbb7db265adb47484a1b2a3fb0bf3218dc0a8e6c6ec17a0abaeb0,51.41652,-0.31385,009a9a95-fa75-44e5-a6f4-bf39e432c58a,17
18,"Flat 4, 46, Fairfield South, Kingston Upon Thames, Greater London KT1 2UW",Flat,,https://www.rightmove.co.uk/house-prices/details/england-18030550?s=63cb5698102efd2552137965f98e38611cabd997d08be31e0db43eccf736ca09,51.40771,-0.29534,72500bfc-74cf-4910-b464-54b362a8a781,18
19,"13, Becketts Place, Hampton Wick, Kingston Upon Thames, Greater London KT1 4EQ",Flat,2.0,https://www.rightmove.co.uk/house-prices/details/england-82273295-16199380?s=ada908c6beb6abf3f208abc9914dc0a3cd45bad4e5dedee09c2f8759dd7b469b,51.41268,-0.30939,f4d51279-f829-491c-9edf-5152f16c9b89,19
20,"18, Portman Road, Kingston Upon Thames, Greater London KT1 3DY",Semi-Detached,2.0,https://www.rightmove.co.uk/house-prices/details/england-114602957-16506226?s=01771a627a04cf3e658d280e243217c2f77470a9a78676d0f463989d565dd8ff,51.40837,-0.291,cbad2345-1caa-4d8f-ba4a-9ec202e8f16d,20
21,"2, Station Road, Hampton Wick, Kingston Upon Thames, Greater London KT1 4HG",Semi-Detached,4.0,https://www.rightmove.co.uk/house-prices/details/england-83622858-15886678?s=bb7a214a9f7e0ff7f7898799d8ea3d3c6b8e9f332c8f122f5f4da61239449433,51.41488,-0.31219,36f0e84d-a54c-4307-973c-f874eb7bcb5c,21
22,"8, Portland Road, Kingston Upon Thames, Greater London KT1 2SG",Terraced,2.0,https://www.rightmove.co.uk/house-prices/details/england-123467276-15886639?s=74095b4c02890dcb7a47eab4e7ade463ac1aae65451a4e0542d2f652c76aede9,51.40409,-0.29965,9143f96c-b288-431d-a08d-069eebbeec9d,22
23,"38, Hawks Road, Kingston Upon Thames, Greater London KT1 3EG",Semi-Detached,3.0,https://www.rightmove.co.uk/house-prices/details/england-81526932-16506229?s=4020449c1ac4740374148a8fe2e2ce83eead42ba80064f8368e06c97a10483a6,51.40857,-0.29229,82216dbf-940c-41a0-946e-fc17004b1c12,23
24,"28, Caversham Road, Kingston Upon Thames, Greater London KT1 2PX",Detached,3.0,https://www.rightmove.co.uk/house-prices/details/england-115031693-15886633?s=d440c59aee3256ea83f08f6c7dee456f94c08902771c4ae19fcdcc1e7d7c4d6f,51.40989,-0.29713,ffe4c52c-4369-4271-9a51-008cdd2fcfbc,24
25,"6, Woffington Close, Kingston Upon Thames, Greater London KT1 4EF",Flat,1.0,https://www.rightmove.co.uk/house-prices/details/england-120516980-15886672?s=5d84af05a4dcabcc58ecaec48d68a9e93771d067c87b45a299fe1fca4a069e57,51.41664,-0.31572,657c2560-f3f2-4104-9fc9-47aea8d37fb6,25
26,"Flat 4, 444, Kingston Road, Kingston Upon Thames, Greater London KT1 3PB",Flat,,https://www.rightmove.co.uk/house-prices/details/england-15886660?s=4132907aef92b68a75b63b77efa19cae3afb78f95ea244cd2934311f70865734,51.40598,-0.28146,c33c2c17-2bd9-4402-a4ec-f9ef52c3a73d,26
27,"45a, Fassett Road, Kingston Upon Thames, Greater London KT1 2TE",Flat,,https://www.rightmove.co.uk/house-prices/details/england-16199329?s=1780ab76682d5c204ae873864813d0d8ba699e491679e9e936883e6d0571c72b,51.4007,-0.30164,d31822af-1f88-4a6c-b518-c9cdc9c79bbb,27
28,"24, Chesham Road, Kingston Upon Thames, Greater London KT1 3AQ",Semi-Detached,3.0,https://www.rightmove.co.uk/house-prices/details/england-123618926-16506217?s=87f49b55564a7a2b181d0636bd46044327b683967ab89786501f022f4e92ddeb,51.4112,-0.28802,44c9247c-4d2c-4970-8cd3-40cec947f076,28
29,"428, Kingston Road, Kingston Upon Thames, Greater London KT1 3PB",Semi-Detached,3.0,https://www.rightmove.co.uk/house-prices/details/england-122083652-15886657?s=651acca1a3ce74d3194393c80bc26347592c94e2902540d19641a5cb2acdfc97,51.40598,-0.28146,837842dd-5a71-489d-b7f2-5f1e5194fd06,29
30,"14, Belgravia Mews, Kingston Upon Thames, Greater London KT1 2LP",Terraced,,https://www.rightmove.co.uk/house-prices/details/england-16199299?s=18c498dabd7c4fca1827ef8a361d1064fcf4c32a7349afe46a26fd158795f07c,51.39924,-0.30673,9d76e976-aa13-40e7-b59d-266e23e157dd,30
31,"47, Avenue Road, Kingston Upon Thames, Greater London KT1 2RD",Semi-Detached,3.0,https://www.rightmove.co.uk/house-prices/details/england-121967906-16199314?s=10e183c3f6f7c3ddd4a8ecbf13a2426ccc7f9f43bb8ec27bfd25aceeac4107b0,51.40606,-0.299,a5d960dd-f42d-4833-a7ac-f2cfc9240725,31
32,"10, Dickerage Road, Kingston Upon Thames, Greater London KT1 3SP",Semi-Detached,4.0,https://www.rightmove.co.uk/house-prices/details/england-35245976-17726425?s=fb00baacb7c4013e8c1c1d34ffb69892cf6de4877ac7e90fa07649a483b7eb14,51.41253,-0.2746,ddcff887-cbda-4c96-b8af-534fcdf5416a,32
33,"15, Minerva Road, Kingston Upon Thames, Greater London KT1 2QA",Terraced,5.0,https://www.rightmove.co.uk/house-prices/details/england-122002436-16199311?s=6eaf802488da11bd77616d2fd2193ec2607b1ee8cc55588d734c019e9eb4e86c,51.40969,-0.29556,d26ff992-d666-4b27-b66d-6592cb7109a0,33
34,"Flat 9, 18, Lower Marsh Lane, Kingston Upon Thames, Greater London KT1 3FE",Flat,,https://www.rightmove.co.uk/house-prices/details/england-18030571?s=543668cb59a517b3b6ae013e336e669fa2c804c34f8d8fbb6a97c2e96813ee65,51.40114,-0.29458,b4dd2ca4-753b-4f01-8f49-6ed3d8482fa4,34
35,"Flat 6, Fairfax House, Livesey Close, Kingston Upon Thames, Greater London KT1 3GD",Flat,2.0,https://www.rightmove.co.uk/house-prices/details/england-104601539-17726413?s=a49f78ad09da1d4c61acb3adaf710f217198ee2d6b2f488c91232dcc980d9203,51.40699,-0.29508,f0a10900-20d4-4fd7-b066-8c82ca4573a2,35
36,"Flat 10, Link House, 37, Lower Teddington Road, Kingston Upon Thames, Greater London KT1 4HQ",Flat,,https://www.rightmove.co.uk/house-prices/details/england-15886684?s=af7841aaceca7d0482c146503755cbf936cb717d8bc89c771807bbd70dc437c3,51.41584,-0.31014,feb5e6fa-66c4-401c-a02d-460faad32297,36
37,"15, Denmark Road, Kingston Upon Thames, Greater London KT1 2SD",Semi-Detached,3.0,https://www.rightmove.co.uk/house-prices/details/england-120803087-15580585?s=559141d79bc83582272a7ceda298a39bdf114d4bb21d0daf04ac953a7102d0a4,51.40382,-0.30009,ed36d470-67fb-4085-a424-32072f0f35e6,37
38,"Flat 44, Elder House, 4, Water Lane, Kingston Upon Thames, Greater London KT1 1AE",Flat,,https://www.rightmove.co.uk/house-prices/details/england-17726302?s=095ded764a58ab872e27b82308d78b2d58da9ac38d3851a227e109d9cf46674d,51.41256,-0.30738,fee602eb-f2d6-4b27-b0ba-ddaa3401e393,38
39,"Flat 1, 4, Church Grove, Kingston Upon Thames, Greater London KT1 4AL",Flat,,https://www.rightmove.co.uk/house-prices/details/england-17399755?s=8aad1a6ad5ed179d69fe721e6c9263220427940235912a8073b43d993be5c321,51.41247,-0.31328,e6e08b02-13de-4742-a44e-8691f12f51fd,39
40,"Flat 7, 25 - 27, High Street, Hampton Wick, Kingston Upon Thames, Greater London KT1 4DA",Flat,,https://www.rightmove.co.uk/house-prices/details/england-16788835?s=d2c3bb7d2b5a7b15e41ff895b1dc81e87970deedae6be4be255433117b802d22,51.41217,-0.31114,f8691d6b-9ca9-4f77-94b9-0e4ad1311aa4,40
41,"Flat 4, 2, Seymour Road, Kingston Upon Thames, Greater London KT1 4HW",Flat,,https://www.rightmove.co.uk/house-prices/details/england-17066353?s=644ed2f7b82ace812dbe1cbe189b966856fdcc19db56a2759c24e2d37f5754ee,51.41504,-0.31118,41413e46-27be-4c40-b1cb-70ca98a8af53,41
42,"16f, Lower Teddington Road, Kingston Upon Thames, Greater London KT1 4EU",Flat,1.0,https://www.rightmove.co.uk/house-prices/details/england-127015997-15580654?s=05ed41adbe80af3dfbfbebb36d92d2c29710534ee311c51a1da26fa15ba24885,51.4143,-0.30962,c59c94df-e2fa-45c3-9246-cfcae6206acd,42
43,"22a, Grove Close, Kingston Upon Thames, Greater London KT1 2SS",Flat,2.0,https://www.rightmove.co.uk/house-prices/details/england-119757584-15580591?s=b828e3dbc11ea263a4fe1178cc1921605b7a910dab9e5628d6409026d27bbded,51.4018,-0.29729,1acab820-bd6c-4bf7-9ec3-b39df3d12642,43
44,"2, Mill Place, Kingston Upon Thames, Greater London KT1 2RJ",Semi-Detached,,https://www.rightmove.co.uk/house-prices/details/england-16199320?s=4ee84c1b0413da2a9de2f63460776f9f112e41c1ebb24cd972f7361fff4604e5,51.40685,-0.29782,60dfc39e-839b-42e9-a47c-bd5f3494577f,44
45,"Flat 14, Falconry Court, 7, Fairfield South, Kingston Upon Thames, Greater London KT1 2UR",Flat,,https://www.rightmove.co.uk/house-prices/details/england-15580597?s=b74e7e9415f030440f0455a90b96191a61ae5558e1aad68d3a4b628682877417,51.4075,-0.29952,c6637022-543f-44b2-b14e-7273bdfac322,45
46,"15, Glamorgan Road, Kingston Upon Thames, Greater London KT1 4HS",Detached,,https://www.rightmove.co.uk/house-prices/details/england-16506259?s=c927c0ecb64b23e0d2d89997b6edf5de15f6cef34ac63cfe96dc3881f77716ed,51.41732,-0.31339,e72fe07a-c20d-4bfe-b8dc-d3bca0cdce07,46
47,"41, Auckland Road, Kingston Upon Thames, Greater London KT1 3BQ",Terraced,4.0,https://www.rightmove.co.uk/house-prices/details/england-118749740-15580612?s=276ae18a0b9613a7f3ee0390b7519f9bc7fcc9335f84d28811ce4c42fdce38be,51.40184,-0.29384,89aaaf30-0abf-41e1-8fc4-e466560a4af0,47
48,"Flat 9, Westergate House, Portsmouth Road, Kingston Upon Thames, Greater London KT1 2NE",Flat,2.0,https://www.rightmove.co.uk/house-prices/details/england-125841875-16199302?s=634a8feea49464a65e003babbb5649b74c8bd761fdf652e0d863de2664a5e246,51.40016,-0.30799,a691d73d-3960-4118-9a41-7eac7d43fcc2,48
49,"12, Fairfield East, Kingston Upon Thames, Greater London KT1 2PT",Terraced,3.0,https://www.rightmove.co.uk/house-prices/details/england-135789455-15580579?s=31bfe103061502d1711aa7ff7237973ba01f0624e6d0cae224fa1f7d0b369004,51.41,-0.29813,f90b8f32-508d-46a5-83b2-f0e776d4e2c2,49
50,"Flat 6, Stewart House, 42, Villiers Road, Kingston Upon Thames, Greater London KT1 3AR",Flat,,https://www.rightmove.co.uk/house-prices/details/england-15580606?s=351eedd2ae9e45d84ddf6daf090d37e790f0974d64421931e57447ef4666e52e,51.40519,-0.29515,d04f76c5-521b-4e9f-b980-dc49f3f9b9ec,50
51,"42b, Fairfield South, Kingston Upon Thames, Greater London KT1 2UW",Flat,,https://www.rightmove.co.uk/house-prices/details/england-15580603?s=894ca71d1634fee77ec5832832a1557ea7f2b48842a892d3d3bd4ab74a6a8f2b,51.40771,-0.29534,0bcf5cd4-832a-4549-8444-789175c695b5,51
52,"163, Villiers Road, Kingston Upon Thames, Greater London KT1 3BD",Terraced,2.0,https://www.rightmove.co.uk/house-prices/details/england-119187257-15580609?s=2e8ac439d79b1f65a4e07b30dbd008a580e4c01c7fa4b7cb9ebae8023c3dcd32,51.40185,-0.29441,d3443584-4716-41df-9b60-b2110cacf70d,52
53,"27a, Cedars Road, Hampton Wick, Kingston Upon Thames, Greater London KT1 4BG",Flat,2.0,https://www.rightmove.co.uk/house-prices/details/england-121005458-17066338?s=3ef137f247dfab5712148d8e54504c1d56027a02d0aee49bf3baf6029f7c0cac,51.41559,-0.31763,fec96efc-0cc3-4bef-bcf7-779e6de13aa0,53
54,"Flat 2, Heron House, Church Grove, Kingston Upon Thames, Greater London KT1 4AR",Flat,1.0,https://www.rightmove.co.uk/house-prices/details/england-112977569-15580648?s=2bf0301189a6f6e25cca1171993dbe3d08b33ae0e6a4bb0d2b627327cf427a87,51.41247,-0.31372,49570832-399e-4ba6-9a3d-2c23ba7de2c0,54
55,"Flat 5, Jerome House, 6, Old Bridge Street, Hampton Wick, Kingston Upon Thames, Greater London KT1 4BJ",Flat,,https://www.rightmove.co.uk/house-prices/details/england-17066341?s=3840f77dc41e52896edce8182e00971af268dee4206f71b8ae5bd78723ae75bb,51.41161,-0.3103,13acb102-3b1e-4f26-84e4-8cba7af8f53b,55
56,"2, The Grange, 9, Grange Road, Kingston Upon Thames, Greater London KT1 2QU",Flat,,https://www.rightmove.co.uk/house-prices/details/england-17066290?s=4a5c8d6837e1f8f0f0a775b599c1beaf9bc2b82022b9d3ff519823745af63909,51.40673,-0.30214,d79da7bf-7fb4-46da-9426-fb78d5773a68,56
57,"31, Elton Close, Kingston Upon Thames, Greater London KT1 4EE",Flat,1.0,https://www.rightmove.co.uk/house-prices/details/england-125427809-15277279?s=e3df2c20b905d21f12a84f070d55705d5e3edb429204c6529dd0fb8c2c9523ce,51.41753,-0.31497,5ec06c1d-e410-4a07-b91c-a4a78074d485,57
58,"Flat 3, 40, Victoria Road, Kingston Upon Thames, Greater London KT1 3DW",Flat,,https://www.rightmove.co.uk/house-prices/details/england-16199344?s=222d559ba83208d1ab8429fc3247772240e9d03965211bacc39f2becb3604f8d,51.40938,-0.29284,042d512a-7a57-4855-a1c1-03fcf882f3a8,58
59,"Flat 4, Maple Court, 200a, Cambridge Road, Kingston Upon Thames, Greater London KT1 3LS",Flat,,https://www.rightmove.co.uk/house-prices/details/england-16506235?s=f5b6ca6a049d7407e084cdc8194efc250fd905f26a34a0b2a2c0b345d4715184,51.40691,-0.28329,b4555515-9c33-4514-a873-7554a57c7974,59
60,"Flat 20, Bodman House, 1, Bishops Hall, Kingston Upon Thames, Greater London KT1 1AS",Flat,,https://www.rightmove.co.uk/house-prices/details/england-17726329?s=18bc7fce55862ac383a794100f1317399832e087f788307c487944e1f6307fa4,51.41022,-0.30733,2e5da297-25f2-4739-869c-7769bc56bd1f,60
61,"11, Alfred Road, Kingston Upon Thames, Greater London KT1 2UA",Detached,4.0,https://www.rightmove.co.uk/house-prices/details/england-116234498-15277234?s=7521d136af2ce9b07c53704a132ada3d580d80d0e779b7abe56a3fc0e26698ff,51.40343,-0.29751,b39181e7-242d-41e4-a221-dcd7b4113ed3,61
62,"49, High Street, Hampton Wick, Kingston Upon Thames, Greater London KT1 4DG",Terraced,3.0,https://www.rightmove.co.uk/house-prices/details/england-111666077-15277276?s=13070efb9daaea3c0c15adffb450bbe855573fa4c289eb27d1b726887d70c965,51.41371,-0.31223,41192bb1-aebb-495e-989f-a80e5628a631,62
63,"9, Church Road, Kingston Upon Thames, Greater London KT1 3DJ",Semi-Detached,2.0,https://www.rightmove.co.uk/house-prices/details/england-122083685-15277243?s=5db06e3cce80a09dec758563dbf9366526a01d2a616bf4705e256c49676ccd00,51.41002,-0.29339,966ec328-265c-47e5-9fb9-64bc673cab81,63
64,"12, Rowlls Road, Kingston Upon Thames, Greater London KT1 3ET",Semi-Detached,4.0,https://www.rightmove.co.uk/house-prices/details/england-122083757-15886651?s=34b9a7011a40a3019a03697f5b32cfc9de5631d89be956e6ade300f24f1da4a3,51.40711,-0.29091,70500512-74f5-49d0-a46a-a47cffba79aa,64
65,"47, Auckland Road, Kingston Upon Thames, Greater London KT1 3BQ",Terraced,4.0,https://www.rightmove.co.uk/house-prices/details/england-116118989-15886645?s=1071dddc3e16c769e6f7fb7e5e6ae28722f478e058d6cf15b6456bfccac677f2,51.40184,-0.29384,82fad958-2a48-4e6a-a8d7-336fefed8250,65
66,"12, Thameside Place, 26, Lower Teddington Road, Kingston Upon Thames, Greater London KT1 4HE",Terraced,,https://www.rightmove.co.uk/house-prices/details/england-15580657?s=7e8e746f351e6ed6572078d8ee3e835decd2ab8b172794096500dcfd6804e91b,51.416,-0.30898,641a08c9-b209-4259-81db-c4df50ce8ef6,66
67,"21, Rosebery Road, Kingston Upon Thames, Greater London KT1 3LJ",Semi-Detached,3.0,https://www.rightmove.co.uk/house-prices/details/england-126321281-15580630?s=9bd06829867ee10d5863d358ba7b9bdb03806bcc6074a7f2e3e5373fc26c768a,51.40842,-0.28252,03c98b5f-5796-4f5c-91f4-b5f10130afe6,67
68,"Flat 17, Anglesea House, Anglesea Road, Kingston Upon Thames, Greater London KT1 2ET",Flat,1.0,https://www.rightmove.co.uk/house-prices/details/england-107979446-16506190?s=5d0dc7747024d9867b6f6802e437a1831f98fe34ba0cc067a374a407d94ff3c6,51.40077,-0.30667,9d2bea97-ad9a-4696-b7dc-1a54b126203b,68
69,"Flat 4, 18, Beaufort Road, Kingston Upon Thames, Greater London KT1 2TQ",Flat,,https://www.rightmove.co.uk/house-prices/details/england-15277228?s=723f4664a38f154f4bc62ec325758269f76e527b506f0cfd16738910fc9d589e,51.40167,-0.30074,2ab8b297-f71a-43c4-ba32-5ef65945de27,69
70,"10b, Bonner Hill Road, Kingston Upon Thames, Greater London KT1 3EP",Terraced,2.0,https://www.rightmove.co.uk/house-prices/details/england-119298527-15277249?s=3dd57376fe9e121cff6ff91587f4647af531001a0b13a71845293ed5a0433fed,51.40777,-0.29318,870936ea-c968-45a3-9131-9ad91f6cfc69,70
71,"5, Charter Road, Kingston Upon Thames, Greater London KT1 3PY",Semi-Detached,3.0,https://www.rightmove.co.uk/house-prices/details/england-116338010-15277264?s=176ede973f6797d2a7d3b8b5ad38fe033bf024734edd486e418564dd2568ccb2,51.4072,-0.27883,725efbff-823c-429e-b59c-8f5353fe3b3a,71
72,"5, Dumbleton Close, Kingston Upon Thames, Greater London KT1 3ST",Terraced,3.0,https://www.rightmove.co.uk/house-prices/details/england-122083667-15277273?s=93848505b127c671034246b8793e9fe13a402260072058dae0d8deac350a145b,51.41235,-0.28036,21f685c9-413c-4921-a768-8fa9b1e4fdc9,72
73,"32, Herbert Road, Kingston Upon Thames, Greater London KT1 2SP",Semi-Detached,,https://www.rightmove.co.uk/house-prices/details/england-16506199?s=2e8aedd29c164397b6f0c74b81af1e63e259ab7b0cb40ce6747e2cc6b1041f57,51.40448,-0.29575,5afecde2-23c5-44b7-a46d-ec52788450ad,73
74,"27b, Portsmouth Road, Kingston Upon Thames, Greater London KT1 2ND",Semi-Detached,3.0,https://www.rightmove.co.uk/house-prices/details/england-51995095-15277207?s=45f632a40794840a91d35738230c31bec08c3fa36fb2ac7e59d89e10fae17b61,51.40115,-0.30795,2bf7ec75-8d82-4987-b839-40c4d281ea7d,74
75,"30, St Johns Road, Hampton Wick, Kingston Upon Thames, Greater London KT1 4AN",Terraced,2.0,https://www.rightmove.co.uk/house-prices/details/england-106235003-16788829?s=759f82329b1eb412a78314c283d09a64a1f78557bc4b8a6341749066104a55e1,51.41227,-0.31214,86d25ad8-cb08-4db0-8147-6365aff47d95,75
76,"47, Douglas Road, Kingston Upon Thames, Greater London KT1 3PX",Terraced,3.0,https://www.rightmove.co.uk/house-prices/details/england-118998755-16199356?s=45f792f4a0da3e876b35f72ef8179537bf51df0104d0812c9d4aeabf0ffb39fd,51.40803,-0.27995,88a38950-b710-482c-8183-27a40b3e972a,76
77,"24a, Vicarage Road, Hampton Wick, Kingston Upon Thames, Greater London KT1 4ED",Flat,2.0,https://www.rightmove.co.uk/house-prices/details/england-113758400-15886669?s=f95f0013fe81247bd1b5bcbc64f49d725a7c302151a74ddcce9ebfd2ca06498d,51.41512,-0.31649,98f038e6-2b89-4a4e-b6a4-1c714d7700cc,77
78,"Flat 7, Westergate House, Portsmouth Road, Kingston Upon Thames, Greater London KT1 2NE",Flat,2.0,https://www.rightmove.co.uk/house-prices/details/england-118948424-15277210?s=d771ff2e635622da6c8d9efa49c64d6e157ffc2ffb90c7a79c7b308d8455fba8,51.40016,-0.30799,80125ccd-d1e6-468e-ac3e-07656608b804,78
79,"Flat 22, Park Court, Park Road, Hampton Wick, Kingston Upon Thames, Greater London KT1 4AU",Flat,2.0,https://www.rightmove.co.uk/house-prices/details/england-128353490-15886666?s=2f641ceec3a8ca6654791935d58038ba8a7656392eacd3f36652bdac8e71e0fc,51.41455,-0.31436,9b662f3f-9eb3-4073-9d9d-043d47d9eba2,79
80,"9, Maplehurst Close, Kingston Upon Thames, Greater London KT1 2HD",Flat,2.0,https://www.rightmove.co.uk/house-prices/details/england-113649971-15277195?s=5c93434bbdfae7eaeecf09688963bc10f5330827962579646f275e4eebb7cb6c,51.40027,-0.30295,73696044-60f1-46bc-8a41-bd4ba779d953,80
81,"Flat 6, 25 - 27, High Street, Hampton Wick, Kingston Upon Thames, Greater London KT1 4DA",Flat,,https://www.rightmove.co.uk/house-prices/details/england-17066344?s=b34f88ca067c7e070ad7347f8098792ac6f9b8e11b5d7ef436ba8e92dfa6267e,51.41217,-0.31114,26b8093d-e531-4b2b-8048-6291ab57fd57,81
82,"27, Balmoral Road, Kingston Upon Thames, Greater London KT1 2TY",Semi-Detached,4.0,https://www.rightmove.co.uk/house-prices/details/england-118965407-15277231?s=1b5db5bedb67c302b39fb0ad3056a4fdb03db5a9ef60056959044aecbd9dafc2,51.40258,-0.29525,02142ffd-d744-459d-8928-3c62f325e97f,82
83,"Flat 5, 4, Church Grove, Kingston Upon Thames, Greater London KT1 4AL",Flat,,https://www.rightmove.co.uk/house-prices/details/england-17399749?s=8cb6e79f396fd3cefb9e4d3543c0b8e2119db3670399b078f59251f2f35859dc,51.41247,-0.31328,b36b40ec-766b-4e6a-9623-70b6fe8af46e,83
84,"64, Douglas Road, Kingston Upon Thames, Greater London KT1 3PT",Terraced,4.0,https://www.rightmove.co.uk/house-prices/details/england-114836888-15277261?s=3c247cd9204eba5a83aa346f314c57bf2133db6b49795e6ed1cbafb9869df202,51.40669,-0.28057,8b8eae83-19d8-4ae1-87e7-5bf602e89c81,84
85,"61, Orme Road, Kingston Upon Thames, Greater London KT1 3SD",Terraced,3.0,https://www.rightmove.co.uk/house-prices/details/england-118638131-15277270?s=7fda6d8571052765f148fcaa9db32c67046868737fce55cac1ceef73217c8652,51.40934,-0.27774,f0078d50-5199-4800-8283-780bba6a7bd8,85
86,"6, Kings Keep, Kingston Upon Thames, Greater London KT1 2HP",Flat,,https://www.rightmove.co.uk/house-prices/details/england-15277201?s=8041f8beb37c9fe723169507c0ccfdfa583c504684cdcb5391e8857ea862fc4e,51.39944,-0.30198,5c62b872-2c4d-4f95-a392-c40fae64bb90,86
87,"Flat D, 21, Uxbridge Road, Kingston Upon Thames, Greater London KT1 2LH",Flat,,https://www.rightmove.co.uk/house-prices/details/england-14978206?s=4377493ef83f20f59c43a564359cfcb3dce6c7fe87b9a5eb6be8d04b1607a5b5,51.39852,-0.30675,8c5f06c5-51b6-4d44-b39f-3c791d775174,87
88,"87, Bonner Hill Road, Kingston Upon Thames, Greater London KT1 3EY",Semi-Detached,,https://www.rightmove.co.uk/house-prices/details/england-17399680?s=5463c00ac05e77ddc77b90ad4f143ab4c456eb5e58f9fb52c0883835f08facc8,51.40636,-0.28921,89b209e8-1fd9-4eeb-8dcb-5e6e90de4753,88
89,"38, Gladstone Road, Kingston Upon Thames, Greater London KT1 3HD",Flat,1.0,https://www.rightmove.co.uk/house-prices/details/england-83688652-15580621?s=8ab79e80d0b25190919844b1e68ff36752296f900c26e2599ec95047783f518c,51.40559,-0.28579,a1a41828-3ae2-4952-9a58-c3313b299687,89
90,"10a, Balmoral Road, Kingston Upon Thames, Greater London KT1 2TY",Flat,1.0,https://www.rightmove.co.uk/house-prices/details/england-115244030-14978224?s=0aef581e7fc501c0dca1c7adc8847d517ffc86cce4d98ab4a23708c03f57ffb9,51.40258,-0.29525,e92f30a7-0941-473c-9299-07711bb6d3bf,90
91,"Flat 3, 4, Church Grove, Kingston Upon Thames, Greater London KT1 4AL",Flat,,https://www.rightmove.co.uk/house-prices/details/england-17399746?s=2542294fb690f9e00f7cabc39e2534cce2e9153887500c271cd9a2f090924f7d,51.41247,-0.31328,a4aeb087-2a42-4ddd-b64c-37e0cde40353,91
92,"17, Minerva Road, Kingston Upon Thames, Greater London KT1 2QA",Detached,3.0,https://www.rightmove.co.uk/house-prices/details/england-90860308-15277216?s=f6f95e26483521530bb7e6b97b2fefb852114bf593b8b89eb9046d7bb5b98931,51.40969,-0.29556,b3158f7f-0792-4f3b-9c0a-b35ec00c52fd,92
93,"Flat 32, Ingram House, Park Road, Hampton Wick, Kingston Upon Thames, Greater London KT1 4BA",Flat,3.0,https://www.rightmove.co.uk/house-prices/details/england-106994468-16199362?s=92538412830b38c04977fc9ae50f94e47b2b6fcb87f36a69f1e253feb288c97d,51.4144,-0.31666,c7850153-de3a-431c-bd6c-2dbbbfffc387,93
94,"79, Bonner Hill Road, Kingston Upon Thames, Greater London KT1 3EU",Terraced,3.0,https://www.rightmove.co.uk/house-prices/details/england-81356622-15277252?s=f9d5f598265d964b3fd01c4b7a439cf513daf0aeea306dbbaa77ceb04bd802bf,51.40665,-0.29064,b1606775-a41e-45e5-97ae-fc3f1fa26a1d,94
95,"Flat 4, 1, Uxbridge Road, Kingston Upon Thames, Greater London KT1 2LH",Flat,,https://www.rightmove.co.uk/house-prices/details/england-18030511?s=390ed80159e35741ca81779cc567317fc6adb4aa89474f087330716b88165730,51.39852,-0.30675,463a6033-4f4f-41e9-958f-965ae771df72,95
96,"61, Lingfield Avenue, Kingston Upon Thames, Greater London KT1 2TL",Semi-Detached,3.0,https://www.rightmove.co.uk/house-prices/details/england-49263697-15277225?s=66c14ee00e44922f9aeade2700ccacb1fa7894701b73908b7c0e8b7a39351f87,51.40118,-0.29745,24a4f76c-8000-482f-be87-435702b6d4dc,96
97,"Flat 5, 26, The Bittoms, Kingston Upon Thames, Greater London KT1 2AE",Flat,,https://www.rightmove.co.uk/house-prices/details/england-16506181?s=56729b32e964ac5fa6c0b6fbfb3e097726bdf18a9b29a4b23185a887da3440a5,51.4068,-0.30717,4a160fb2-24d7-425e-bf71-25fe6115e6ed,97
98,"57, Portland Road, Kingston Upon Thames, Greater London KT1 2SH",Semi-Detached,3.0,https://www.rightmove.co.uk/house-prices/details/england-107278067-15277219?s=a693e047af22837892ce7b92e481bd9c28a31f70a707f418d255b3ccd19476a1,51.40423,-0.29734,2ed0047d-55b9-4a16-9f1e-b1077d9c9c12,98
99,"40a, Park Road, Hampton Wick, Kingston Upon Thames, Greater London KT1 4AS",Terraced,6.0,https://www.rightmove.co.uk/house-prices/details/england-109571099-14978266?s=a12ae8066e3c002ca067373a031182ea694c6148fbe5b2adb21890665766d5fc,51.41318,-0.31283,c93eb998-739c-4e15-8566-9a89c83864fa,99
100,"Flat 2, 46, Fairfield South, Kingston Upon Thames, Greater London KT1 2UW",Flat,,https://www.rightmove.co.uk/house-prices/details/england-15580600?s=865211f22323702ead85472c1e06749656fb8c6048fb592bac274990aee44158,51.40771,-0.29534,1da93413-0d5b-41b8-9df9-dc7256f101f4,100
101,"15, South Lane, Kingston Upon Thames, Greater London KT1 2NJ",Semi-Detached,2.0,https://www.rightmove.co.uk/house-prices/details/england-117079745-15277213?s=315fc19caacf9938ea2c46a33e56ba53097260a12023c1fc250cca27e759e4e0,51.40591,-0.30734,47aeeeac-7f29-4738-9c3b-195ad59cfaa0,101
102,"129, Bonner Hill Road, Kingston Upon Thames, Greater London KT1 3HE",Terraced,2.0,https://www.rightmove.co.uk/house-prices/details/england-118807856-14978242?s=ec1f44ac8036d955439ea20505cd1049fce3a311aa4686ebdc85187e4b4e2607,51.40649,-0.2859,778a4034-5e40-4fde-8d33-bbe7731b677f,102
103,"135, Bonner Hill Road, Kingston Upon Thames, Greater London KT1 3HE",Semi-Detached,2.0,https://www.rightmove.co.uk/house-prices/details/england-14202378-15580624?s=9c3ffc489d1256686f0cc55810af38939c778e956ddc1c3c1c837d1811493426,51.40649,-0.2859,ae31b101-fc93-4c8b-a9fb-1d17b25d0168,103
104,"Flat 1, Grovelands, Palace Road, Kingston Upon Thames, Greater London KT1 2LE",Flat,2.0,https://www.rightmove.co.uk/house-prices/details/england-125895212-14978203?s=78170bac12de173750229b7a768fd628ac433b0a03d33693e4967c52591c71de,51.39932,-0.30557,d506ffc4-9a91-4cad-a611-001a65c8dac2,104
105,"52, Revell Road, Kingston Upon Thames, Greater London KT1 3SW",Semi-Detached,3.0,https://www.rightmove.co.uk/house-prices/details/england-113984213-92998614?s=3f263f500fd2d3f90fd93675462c941d7d7212bd83639f508d61f9c236e0455f,51.41176,-0.27736,516319fd-9739-4140-8a31-8c82e1be9ada,105
106,"31a, Chesham Road, Kingston Upon Thames, Greater London KT1 3AG",Flat,1.0,https://www.rightmove.co.uk/house-prices/details/england-53650446-15277237?s=2e0ad05ad24dd9b9813283c7e95b54b0e6e214b56d63431f0618c9cba8530514,51.41128,-0.28759,0b133962-c042-4c11-a412-3fa8f8f7ebf3,106
107,"5, Surbiton Hall Close, Kingston Upon Thames, Greater London KT1 2JX",Semi-Detached,3.0,https://www.rightmove.co.uk/house-prices/details/england-114495905-92998566?s=554e69fecb24a553e0eb518608a3600516c6db515a87ada3b2af818d5cc261cf,51.39965,-0.30384,2cb21bdd-cc08-4622-9237-4b9a327ff851,107
108,"76, Orme Road, Kingston Upon Thames, Greater London KT1 3SB",Terraced,4.0,https://www.rightmove.co.uk/house-prices/details/england-122125088-14978257?s=38cb30cc42493e149177a8d5582eb227c4705ced909e1687a578935f0b50fe7c,51.40861,-0.27719,77ec431a-022e-4598-ab74-c9f330f3a69f,108
109,"Flat 6, Eisenhower House, 12, Vicarage Road, Hampton Wick, Kingston Upon Thames, Greater London KT1 4EJ",Flat,,https://www.rightmove.co.uk/house-prices/details/england-15886675?s=20289ea2d457cbc8c7b5fb48a498c53837f3b1b90689d052be425859ddc3ef5a,51.41529,-0.31591,29725cad-f917-49f8-8445-0d6227f55c2c,109
110,"2, Porchester Road, Kingston Upon Thames, Greater London KT1 3PS",Terraced,2.0,https://www.rightmove.co.uk/house-prices/details/england-117990284-14978245?s=3927f08c8ba3ca052fa402d71dc3c3425c45f28a08b2af29080de52eb9e42540,51.40865,-0.27949,480059e6-780e-4b76-8a9d-ec3c41b41ddd,110
111,"1, Kings Mews, 53a, Alfred Road, Kingston Upon Thames, Greater London KT1 2TZ",Terraced,,https://www.rightmove.co.uk/house-prices/details/england-92998593?s=d927c360927f6e21a5c634cb8a1b9b18a6a75e33a5d137224884e5ba70b2a7c1,51.40341,-0.29622,d0b71754-9dc9-4fd8-b3f9-5cca528de868,111
112,"Flat 4, St. Nicholas House, 33, Glamorgan Road, Kingston Upon Thames, Greater London KT1 4HS",Flat,,https://www.rightmove.co.uk/house-prices/details/england-15580663?s=e3941d483da2a8cc4e09478f7cd99ed38fd32c6f87c50f3bd9c85a26783f2fc5,51.41732,-0.31339,e5ec27c7-a55f-4413-8691-00fb84c1e828,112
113,"Flat 39, Park Court, Park Road, Hampton Wick, Kingston Upon Thames, Greater London KT1 4AX",Flat,2.0,https://www.rightmove.co.uk/house-prices/details/england-116846972-92998617?s=e4b302cb333490d17a82b72038825364fc435d5f96eee78d8958943e110ebe0c,51.4142,-0.31495,7047d28d-873d-4606-8dba-9321e137b1e4,113
114,"Flat 6, 4, Church Grove, Kingston Upon Thames, Greater London KT1 4AL",Flat,,https://www.rightmove.co.uk/house-prices/details/england-17399743?s=09044d0e57ca0368a74c5c2596947645ae03a83771eb6629d2dbf80603d5f8d9,51.41247,-0.31328,736fedac-4063-4b59-a18a-44706223e0eb,114
115,"106, Norbiton Avenue, Kingston Upon Thames, Greater London KT1 3QP",Semi-Detached,5.0,https://www.rightmove.co.uk/house-prices/details/england-113654030-14978248?s=d7345715c6bb18d61ac2c1248f2047c64063c0c1bc072d9260e8ef264e154773,51.41,-0.28562,c2778cbd-2735-448c-97a4-8b8db3a220d9,115
116,"19, Kings Keep, Kingston Upon Thames, Greater London KT1 2HP",Flat,,https://www.rightmove.co.uk/house-prices/details/england-15277198?s=44dbcdfdace6a78c033e600109b398afc43ccae9a6bc361383833f76bf4472c5,51.39944,-0.30198,fb721771-a77f-480e-b716-30c250087a3b,116
117,"Flat 2, 4, Church Grove, Kingston Upon Thames, Greater London KT1 4AL",Flat,,https://www.rightmove.co.uk/house-prices/details/england-17399740?s=f43c00d354831badd0ae93238422d1ca85b41756a360e3bcf9dcccef154af0d7,51.41247,-0.31328,76bd0a5e-a0ca-4208-a2a2-fea09bcc7087,117
118,"54, Avenue Road, Kingston Upon Thames, Greater London KT1 2RB",Semi-Detached,3.0,https://www.rightmove.co.uk/house-prices/details/england-116115971-14978215?s=327a5bafb06c5baf5edbc5400d9dc39dfd9b854e0a45aa6d2852a812634dd227,51.40633,-0.29942,ea9f8ed8-e7a6-4a77-98fd-8643f75db7fb,118
119,"43, Grange Road, Kingston Upon Thames, Greater London KT1 2RA",Semi-Detached,3.0,https://www.rightmove.co.uk/house-prices/details/england-113905880-15886636?s=784f207f172f33bba06d2d6f891dd7725ea7a2df0eaec034c1659d7b1c6decab,51.40562,-0.30016,1a9db756-4935-47fb-8dd4-428ad66094fd,119
120,"19, Villiers Road, Kingston Upon Thames, Greater London KT1 3AP",Semi-Detached,4.0,https://www.rightmove.co.uk/house-prices/details/england-116149115-14978230?s=bde81bb0e5ea92e29cfbeeefab8af76512aa6ece97365fb6367ef817eb85ab30,51.40643,-0.29395,155d64f4-7d18-400f-838e-7a1308a99713,120
121,"6, Kensington Gardens, Kingston Upon Thames, Greater London KT1 2JU",Terraced,3.0,https://www.rightmove.co.uk/house-prices/details/england-112380656-16788796?s=6157d367687ff5ccfc5cc7157a94d58845c7ccb76b5b2a9192bff07e986444c4,51.40527,-0.30708,401e7ed7-a74a-44bc-bc2e-3e0dcb3fcfcc,121
122,"Flat 14, Grove Court, Grove Crescent, Kingston Upon Thames, Greater London KT1 2DF",Flat,2.0,https://www.rightmove.co.uk/house-prices/details/england-51964224-93296046?s=1bca30814b9b27094afb727e4f380a2d02e5bc012bbb3348248ea177e575efbe,51.40358,-0.30211,7c618f23-db7b-4ecb-8194-f72fc416434a,122
123,"16, South Lane, Kingston Upon Thames, Greater London KT1 2NJ",Semi-Detached,3.0,https://www.rightmove.co.uk/house-prices/details/england-115448981-92998569?s=5f67eca146af38e344c87188f4e5e9f1575d6f1f284c0625a906af0c8bce984d,51.40591,-0.30734,147e4cca-ffd9-4b0f-96f8-3a45f0adca2e,123
124,"40, Villiers Road, Kingston Upon Thames, Greater London KT1 3AR",Detached,,https://www.rightmove.co.uk/house-prices/details/england-93296082?s=6befc6cd66cb863279b2d8ee7cba0c66aac7accaa3874a06c20dc511e5383e0d,51.40519,-0.29515,9e2b287b-008b-4028-beda-ff598d335ecc,124
