,address,propertyType,bedrooms,detailUrl,location_lat,location_lng,property_id,index
0,"29, Park Road, Shirehampton, Bristol, City Of Bristol BS11 0EF",Semi-Detached,3.0,https://www.rightmove.co.uk/house-prices/details/england-122323679-16716220?s=3b13bfb9230d2b6caa7c70552b1297c927ae30bbcf9117b04be6fca6e7bf6da6,51.48823,-2.67097,2ca18593-ee17-4612-a225-aa60e379addf,0
1,"23, Woodwell Road, Bristol, City Of Bristol BS11 9UW",Flat,2.0,https://www.rightmove.co.uk/house-prices/details/england-43575114-16716277?s=02d53a00bc28156a66e340adccd4360f92e43c116ec1c40d69599aac158743b2,51.48704,-2.67397,2f26dcd3-f2cc-462f-be5b-803d3b389102,1
2,"51, Barrowmead Drive, Bristol, City Of Bristol BS11 0JH",Semi-Detached,3.0,https://www.rightmove.co.uk/house-prices/details/england-41295987-17299639?s=5b934e3b108b822e324ec72c7c10302e5d300de350c1b0b01bbddade6ff80c03,51.49492,-2.66501,7e6a462e-c003-49fd-a788-39d4791029fa,2
3,"31, Richmond Terrace, Avonmouth, Bristol, City Of Bristol BS11 9EW",Terraced,3.0,https://www.rightmove.co.uk/house-prices/details/england-51570216-17299678?s=5ed3d6a60040c4fe737ad2d57bded6927debbe461e5de926d39d09d59d726e03,51.50155,-2.70012,ec555fba-2d3c-4293-8a1d-9514454002ea,3
4,"26, Woodwell Road, Bristol, City Of Bristol BS11 9UW",Semi-Detached,,https://www.rightmove.co.uk/house-prices/details/england-16416151?s=df755c31b59a47898aa2041ff4cb624531f2a0464eda03f4050d000fae1af2dd,51.48704,-2.67397,e1856182-eb53-4262-bc1f-ae72f286521d,4
5,"23, George Boon Drive, Bristol, City Of Bristol BS11 0GF",Detached,,https://www.rightmove.co.uk/house-prices/details/england-16970161?s=7f65312a80da3f1d84356127bff3bfdc3f6004d9ee95228da4c0986893adf498,51.5037,-2.65462,84351e80-de5c-4fff-af47-2f377b8f8b08,5
6,"4, Ermine Way, Bristol, City Of Bristol BS11 9PE",Semi-Detached,,https://www.rightmove.co.uk/house-prices/details/england-16109650?s=fa0e186ca135145673d49a777b39b65d6e99685eb2e91e6cee23153e4f9f3e49,51.49164,-2.68801,4ba22709-33cc-4daa-9f1d-db2e50c966b8,6
7,"17, Old Quarry Road, Bristol, City Of Bristol BS11 0EN",Terraced,2.0,https://www.rightmove.co.uk/house-prices/details/england-85167828-17943286?s=f227e3a619751b0ff6d589e7d091754d1088b4bfe0c857de66df3ce23bd0ac64,51.49385,-2.6794,1c3a1c5c-cea2-4af5-b762-934836479185,7
8,"84, Long Cross, Bristol, City Of Bristol BS11 0LP",Semi-Detached,3.0,https://www.rightmove.co.uk/house-prices/details/england-120146753-17636065?s=41f1faba4cd57ccfc4897efb017dddb4610b1d8831b391f571cdbddfd3da718d,51.49706,-2.66735,237d7810-b997-4e2e-9e35-6e774aab81a9,8
9,"2, Farr Street, Bristol, City Of Bristol BS11 9JR",Terraced,2.0,https://www.rightmove.co.uk/house-prices/details/england-52540017-16109641?s=3281478823f2b644882d5114ba5a998874bcf8c7adda5d23a8ac2c8a22a344fb,51.49754,-2.69444,5247392b-ddbd-4098-856c-6867c01fa29e,9
10,"65, Oakhanger Drive, Lawrence Weston, Bristol, City Of Bristol BS11 0RJ",Terraced,3.0,https://www.rightmove.co.uk/house-prices/details/england-120412088-16970182?s=0507d3c372eced1aee618a17620b76d5a97ee21389e96a30c14bda11a0dd1d03,51.50073,-2.65559,c1146ee9-5499-4650-89ff-05eca6a8892e,10
11,"59, Oakhanger Drive, Lawrence Weston, Bristol, City Of Bristol BS11 0RJ",Terraced,3.0,https://www.rightmove.co.uk/house-prices/details/england-119757992-17943304?s=76f36ac765a91543d2192ddcc5eebc55285cc90cca3bbd6465f1c6bba1f3614e,51.50073,-2.65559,b5e92ae0-4881-41a0-a776-73e0afe6f1fd,11
12,"16, Little Mead, Bristol, City Of Bristol BS11 0RH",Semi-Detached,3.0,https://www.rightmove.co.uk/house-prices/details/england-122441300-15793537?s=bdc3fa8e7413803891b74ce181ec62625fc80721c983aeb857ba3333c1d132a8,51.50101,-2.65343,f894fbae-40bc-4168-8d76-8a6013f137b7,12
13,"23a, Park Hill, Bristol, City Of Bristol BS11 0UH",Terraced,2.0,https://www.rightmove.co.uk/house-prices/details/england-120256118-15793540?s=49a4764711f50ab24711f88613008bcdbeb6e536bcd0c2c4ae252104db982228,51.48876,-2.67198,b0d630f8-241d-4a88-933c-aec6159ad916,13
14,"45, Barrow Hill Crescent, Bristol, City Of Bristol BS11 9RD",Terraced,3.0,https://www.rightmove.co.uk/house-prices/details/england-20318598-16970224?s=2f7be5b25f38f7a92ba683846137614b8fb1632b1af05845b07d62c480809ffb,51.49048,-2.68583,0b0fb024-2cdb-4fe5-bd7e-f86e549b4dff,14
15,"8, Rose Close, Bristol, City Of Bristol BS11 0GD",Terraced,,https://www.rightmove.co.uk/house-prices/details/england-16970128?s=dbc71ad36eb08e2bb8dc370008bf0add6d735aea72841a8ae5e3cd2bba224934,51.50342,-2.65606,37cd7132-f912-41bf-9578-35f47297e4ad,15
16,"10, Rose Close, Bristol, City Of Bristol BS11 0GD",Terraced,,https://www.rightmove.co.uk/house-prices/details/england-16970125?s=b211574615b78154e37446710f16eb3a3e2e576c3126d558dd5279d3754fdcce,51.50342,-2.65606,fd9221b6-3848-4673-bb2f-355c4a8f39f6,16
17,"34, Priory Road, Shirehampton, Bristol, City Of Bristol BS11 9TD",Terraced,3.0,https://www.rightmove.co.uk/house-prices/details/england-120417047-15793573?s=671e3769b33263d0370478fefe1920f57c1d8854a132e61800640f373492622a,51.48809,-2.6796,b43690f9-67d0-4ae2-a183-47706b688ffc,17
18,"12, Rose Close, Bristol, City Of Bristol BS11 0GD",Terraced,,https://www.rightmove.co.uk/house-prices/details/england-16970131?s=cfcb1512774af246430c8a8c3252d94d25e4a155f7dd9d3c83c27b9da7469ae8,51.50342,-2.65606,579584fd-1069-4624-947a-c57f626aa3cc,18
19,"4, Rose Close, Bristol, City Of Bristol BS11 0GD",Semi-Detached,,https://www.rightmove.co.uk/house-prices/details/england-16970134?s=d1dbc82af4e587da58a4083740910c1809d9d615187a190c7814c46e7a7f62c0,51.50342,-2.65606,57e90736-9e10-4e87-8f55-cafbbd5e6b8d,19
20,"6, Rose Close, Bristol, City Of Bristol BS11 0GD",Semi-Detached,,https://www.rightmove.co.uk/house-prices/details/england-16970137?s=9f14b9d59ced5893f0dba42c142306f9780d1f3077ed959b0cbb20d8bd162335,51.50342,-2.65606,560996c8-6c99-4287-b535-8c38b370b728,20
21,"17, Poole Street, Bristol, City Of Bristol BS11 9JT",Terraced,3.0,https://www.rightmove.co.uk/house-prices/details/england-115578665-17636098?s=b5b077eda35f4e68a734e74751bf877372fb6e0c2cb3b37ee12187d6bb25030f,51.497,-2.69357,94d04dab-8488-4698-876d-dc0eccf3ddf2,21
22,"4, The Ridge, Bristol, City Of Bristol BS11 0DZ",Terraced,3.0,https://www.rightmove.co.uk/house-prices/details/england-121262945-15793495?s=eb2c08a81f2ae98ce6ab87361d09d7bb7cd71a162220a1f36beb684917ba7b51,51.49046,-2.67474,36508a9a-a4c7-4515-9cfb-84bcab05b651,22
23,"8, Pembroke Road, Shirehampton, Bristol, City Of Bristol BS11 9SQ",Semi-Detached,3.0,https://www.rightmove.co.uk/house-prices/details/england-117142376-17636119?s=ab8d8b59577e4b3537ae844cfd42047e397537b6cf561571496f938145675fdf,51.48839,-2.67529,47ba7edb-b45b-4ba0-a1ab-f4eb13eaf808,23
24,"8, West Town Road, Bristol, City Of Bristol BS11 9NQ",Semi-Detached,3.0,https://www.rightmove.co.uk/house-prices/details/england-117763436-17636104?s=1809045deb2ab20aa4ee234b115475a1227a73ee229c0fe6cf2015dd89dce098,51.49426,-2.6856,f18c90d9-d03e-4a32-b336-25747771f2b1,24
25,"41, Home Ground, Shirehampton, Bristol, City Of Bristol BS11 0HN",Terraced,3.0,https://www.rightmove.co.uk/house-prices/details/england-121412507-15793519?s=96fcc8c89f4911cd4c3978cc04552029331d7de46fcc2174d55ba9f38be858a5,51.49197,-2.67779,7cc795d5-e3f0-48ec-a819-424d71d4d524,25
26,"24, Middleton Road, Bristol, City Of Bristol BS11 0JW",Flat,2.0,https://www.rightmove.co.uk/house-prices/details/england-119729207-15793525?s=3b15d0fda7488214a189854d36ca1c230fb7a62e7e1b432a9226c606b2fe25e4,51.49552,-2.66978,ef080b2d-ca6f-41e3-96b9-bd146937f95f,26
27,"14, Jasmin Grove, Bristol, City Of Bristol BS11 0TF",Terraced,3.0,https://www.rightmove.co.uk/house-prices/details/england-42708900-16109617?s=1fd86d8bf652efbdcb581a34ef71ff231191ad0d98d298ecd8b33d6e6eba3e60,51.5049,-2.64845,8ebc448d-f577-40da-aeaa-40ba1b2c0256,27
28,"46, Lower High Street, Bristol, City Of Bristol BS11 0AY",Semi-Detached,3.0,https://www.rightmove.co.uk/house-prices/details/england-124433558-15793486?s=db999cbb5acdff03c08b31ae0a2d5511e86e5b833fbd4db1ff63bbaff1d7e8d8,51.4933,-2.68098,3ed7c412-31cf-4516-a048-c0de3ba90b0d,28
29,"6 Park House Apartments, 6, St Andrews Road, Avonmouth, Bristol, City Of Bristol BS11 9EU",Flat,,https://www.rightmove.co.uk/house-prices/details/england-15793549?s=9208b85b071e337ed2e8be8d9d278a97743b86ade4b0f8efec1fe838f9d87c52,51.50085,-2.69679,662b0973-e70d-45f1-b65c-8a6e6c008616,29
30,"21, Penpole Lane, Bristol, City Of Bristol BS11 0AU",Semi-Detached,4.0,https://www.rightmove.co.uk/house-prices/details/england-61404914-15793483?s=416cef5fa97eba7d617fc0106ba43d34400d9e79c54410297f9f42b5023210ee,51.49277,-2.6791,3f83c10e-b91a-4ab5-a683-c03144c45350,30
31,"Flat 24, The Savoy, 20, Station Road, Shirehampton, Bristol, City Of Bristol BS11 9QB",Flat,,https://www.rightmove.co.uk/house-prices/details/england-15793558?s=7f227b75d70d5720f028cd4def7a8961833625aff1790b6e26650a5aaf7d1c53,51.48731,-2.6747,d1576ab9-670c-430e-87c1-63e75ee8143f,31
32,"55, Meadow Grove, Bristol, City Of Bristol BS11 9PL",Semi-Detached,,https://www.rightmove.co.uk/house-prices/details/england-17636110?s=ecb8058e9f8e226534bb2221702bd4e66eb937f746923676594a85ce1aea54b4,51.49292,-2.68357,63ef1245-8d5e-445b-97a2-d2fdb2fe2636,32
33,"29, The Gastons, Bristol, City Of Bristol BS11 0QZ",Semi-Detached,1.0,https://www.rightmove.co.uk/house-prices/details/england-119661275-16970179?s=a3a44b1edebb5344b1c82c829f69d830142bfd2cad60b42b26a0ecf30d4f7eb4,51.49819,-2.65829,8d2502f5-c8b9-4965-98e3-f05b1ac49202,33
34,"31, George Boon Drive, Bristol, City Of Bristol BS11 0GF",Terraced,,https://www.rightmove.co.uk/house-prices/details/england-16716241?s=6032bb60c2eb340770e6b38bb27f378794a96c38e01dc86dc4db31399f79ee88,51.5037,-2.65462,c23abc46-afd6-4fdb-8bb1-38d48f3c2a09,34
35,"25, George Boon Drive, Bristol, City Of Bristol BS11 0GF",Terraced,,https://www.rightmove.co.uk/house-prices/details/england-16716244?s=5628d57249591e6137d27559d15517db35e27d979962afec6a69e2e35b80c5ee,51.5037,-2.65462,ef6ac8e4-871d-45c0-ba05-574e305ad749,35
36,"6, The Bean Acre, Bristol, City Of Bristol BS11 0AE",Terraced,2.0,https://www.rightmove.co.uk/house-prices/details/england-119148383-15492034?s=362cc7d0e25f23df02cf7ad3cd0d4f74b41202f045dcb8df8cf8fa1a0f370de8,51.4951,-2.68115,26caee9d-0ba8-44dc-9a05-5a79a48cacd1,36
37,"31, Barrow Hill Crescent, Bristol, City Of Bristol BS11 9RD",Terraced,3.0,https://www.rightmove.co.uk/house-prices/details/england-121047317-15793564?s=8beee97ca67dd58e0c933993b1b35597245a3287bdbf734a45a4cdb1d683e764,51.49048,-2.68583,70275558-479a-4e69-ae8d-04caf89bc216,37
38,"29, George Boon Drive, Bristol, City Of Bristol BS11 0GF",Terraced,,https://www.rightmove.co.uk/house-prices/details/england-16970158?s=c7e0dae955db4eb186e2683f60d6f5b772ed8c96344c58552ecea6ceac89224a,51.5037,-2.65462,89574aa0-f676-49d9-9f79-27f1f4a8f7a2,38
39,"68, West Town Road, Bristol, City Of Bristol BS11 9NQ",Terraced,3.0,https://www.rightmove.co.uk/house-prices/details/england-117235259-15793555?s=8f4ba44a1e701159436814f419b5771817a42dd0d03d412153420a510fd4409f,51.49426,-2.6856,81c76496-70a1-45ce-bf66-c1c6ad9f519f,39
40,"2, Riverside Close, Bristol, City Of Bristol BS11 9RF",Semi-Detached,2.0,https://www.rightmove.co.uk/house-prices/details/england-117057692-15492109?s=13d185130e140f5b4b10f9ef8feea11106e1d1de344fc1d7edf7889da6ac79cf,51.48537,-2.66775,5d57b86a-c7ef-4555-9df8-88621d8077dc,40
41,"161, Broadlands Drive, Bristol, City Of Bristol BS11 0PY",Semi-Detached,3.0,https://www.rightmove.co.uk/house-prices/details/england-45993270-16109611?s=c5dbd7ef27b249c912130299f5ebab7e2b066a8f9785a74aaa1c526d744267db,51.50307,-2.65418,336a88fd-f921-4a54-8b7b-79bb7a6cedcc,41
42,"50, Saltmarsh Drive, Bristol, City Of Bristol BS11 0NG",Semi-Detached,2.0,https://www.rightmove.co.uk/house-prices/details/england-114683879-15492061?s=2abca2d58f5fb340fccc848d97dfbdc933c6bb4ba7f05dd663e5b296d7971242,51.50177,-2.66194,452ab698-296a-4e29-aabb-a57c4d822a9d,42
43,"62, Kings Weston Avenue, Bristol, City Of Bristol BS11 0AL",Terraced,,https://www.rightmove.co.uk/house-prices/details/england-16109593?s=cc67471bc34120303f265d98386e111607d83f3a8bf5e77c587c0c5da54f0725,51.49466,-2.67855,7232ff4e-3f8d-468c-8830-a49b3523ec22,43
44,"245, Avonmouth Road, Bristol, City Of Bristol BS11 9EL",Terraced,4.0,https://www.rightmove.co.uk/house-prices/details/england-118748780-15492091?s=92505f5f2c2a8a97b18d70ace362ccfd64fff5ea2b4a685867d2f3c1c291bc14,51.49985,-2.69764,14b21773-c84c-4856-8e0f-9ad5a841fe8c,44
45,"32, Kings Weston Avenue, Bristol, City Of Bristol BS11 0AN",Terraced,2.0,https://www.rightmove.co.uk/house-prices/details/england-116270228-15492037?s=ceb6008d0276e3dbfb8f588d0c7f342e3a631c670a451d9812b7b9ee309cfb92,51.4942,-2.68027,8a77e19f-d490-4258-8caa-f97dff70bc5b,45
46,"35, George Boon Drive, Bristol, City Of Bristol BS11 0GF",Terraced,,https://www.rightmove.co.uk/house-prices/details/england-16716238?s=1d758ace68499adbb33874fdc3e8039dc9bd7322d65ebf1998e81db1a4959f9d,51.5037,-2.65462,079285cf-e332-45e5-9ad8-5541f61e50c7,46
47,"30, George Boon Drive, Bristol, City Of Bristol BS11 0GF",Detached,,https://www.rightmove.co.uk/house-prices/details/england-16716235?s=f132b0d5f2b81c002203c020c14a95166bed48766f425cf218b760f4edf1fb8f,51.5037,-2.65462,5efaa04e-87bf-4434-9631-f7ed4594dee9,47
48,"230, Mancroft Avenue, Bristol, City Of Bristol BS11 0JB",Terraced,3.0,https://www.rightmove.co.uk/house-prices/details/england-121059389-15793522?s=53dc05e0a67888eb0fc818d1b825ac38b1485ab3de84f30ba3a287f03b2c362a,51.4952,-2.66314,dba762a4-f249-4209-88bb-26c2ef331137,48
49,"Flat 2, Campbells Farm, Campbell Farm Drive, Bristol, City Of Bristol BS11 0LD",Flat,1.0,https://www.rightmove.co.uk/house-prices/details/england-52202418-15492055?s=f130d0082dc80f17f27ff699bd325666ee384912c7e63f3c89d354d411ef5e58,51.49995,-2.66552,5a78c62d-325f-4cb6-a35b-9f81bc1ffa26,49
50,"86, West Town Road, Bristol, City Of Bristol BS11 9NH",Semi-Detached,3.0,https://www.rightmove.co.uk/house-prices/details/england-62015898-15492100?s=7020aef5bdd6ac1bd6c45a4073030d5a32c23b4bf44843b60a5eb92b3ee3dafc,51.49308,-2.68717,7aa22827-93ac-4442-a170-ce7d140fe3e6,50
51,"8, St Marys Walk, Bristol, City Of Bristol BS11 9RR",Semi-Detached,3.0,https://www.rightmove.co.uk/house-prices/details/england-119511362-15186835?s=cfbf95feba1a5789a49ade8b674faadfea52b2358ddc174a86dfd8b0b9bb6879,51.48916,-2.68164,b2adca16-e90d-446b-88b3-1d55f44f00bd,51
52,"28, George Boon Drive, Bristol, City Of Bristol BS11 0GF",Detached,,https://www.rightmove.co.uk/house-prices/details/england-16970155?s=6bfd5252e92876f33548a40f4abf38a0d2470dfbe395297fcc035de87d1b0088,51.5037,-2.65462,d807aa7b-dac3-4a7e-ab23-874689e90ae7,52
53,"39, George Boon Drive, Bristol, City Of Bristol BS11 0GF",Semi-Detached,,https://www.rightmove.co.uk/house-prices/details/england-16970152?s=ab541f3deafe88446ed59a0871677ba6b3581787bc62e87bc2a370156c545c08,51.5037,-2.65462,305d686e-900e-40aa-9143-18a81f6548a8,53
54,"33, George Boon Drive, Bristol, City Of Bristol BS11 0GF",Terraced,,https://www.rightmove.co.uk/house-prices/details/england-16970149?s=3736ec1b3f6b1743752a0b39b772f5349d4d697bd7664e44154fe3428a5d7989,51.5037,-2.65462,27b15682-4e40-4b57-b924-cbbe52736924,54
55,"37, George Boon Drive, Bristol, City Of Bristol BS11 0GF",Terraced,,https://www.rightmove.co.uk/house-prices/details/england-16716229?s=45d72da3632ca638daf0cc883c0126744deee14398aa2d070cc08d2684e4cedd,51.5037,-2.65462,ce69bad0-41ec-4228-8a63-86bb59383239,55
56,"87, Barrowmead Drive, Bristol, City Of Bristol BS11 0JR",Semi-Detached,3.0,https://www.rightmove.co.uk/house-prices/details/england-119906750-16970170?s=1746302ab655fffe968e1e5b09a076c0e5d50d9fc4a978f1b3beafed94f678da,51.49453,-2.67005,519160eb-cf0a-41ca-8de3-9027382a34a2,56
57,"46, Church Leaze, Bristol, City Of Bristol BS11 9SZ",Terraced,3.0,https://www.rightmove.co.uk/house-prices/details/england-119511374-16416148?s=e302ef07af8b84d889dcce9499fce3b7c52f7b5a9b6d3eec2b6597dc484c1ac1,51.48774,-2.67816,ad5dd033-db07-47fa-a6a6-4093f4074bba,57
58,"Flat 18, The Savoy, 20, Station Road, Shirehampton, Bristol, City Of Bristol BS11 9QB",Flat,,https://www.rightmove.co.uk/house-prices/details/england-15492106?s=82a622739df0e4fcc1c26a8e749361ecd525fd4baf5f0fcfeb1694a9a45bd0da,51.48731,-2.6747,d7a99c64-7ff6-4598-abd2-9f1925a2f622,58
59,"24, Bradley Crescent, Bristol, City Of Bristol BS11 9SW",Terraced,2.0,https://www.rightmove.co.uk/house-prices/details/england-119224112-15186844?s=edf7428f7246acb62d1048ac3f714fa459152071d66829523d446f84d7387fad,51.48811,-2.67701,d08cb684-18af-4901-a508-a1d28e8c5af3,59
60,"Flat 4, 26, Springfield Avenue, Shirehampton, Bristol, City Of Bristol BS11 9TN",Flat,,https://www.rightmove.co.uk/house-prices/details/england-15186856?s=71d59c9e0b46d5a250c7c19442e54e9aebd6fb550f0ec77fb8ee99e77b5617fd,51.48719,-2.67988,c423b095-e244-4367-ab92-fd1c724d1104,60
61,"8, Charbury Walk, Bristol, City Of Bristol BS11 9UU",Terraced,3.0,https://www.rightmove.co.uk/house-prices/details/england-109763522-15186862?s=a98581cd71ca56efe843dfcb19aeabe138867264e674b32d46fc94ee3c3cea12,51.48417,-2.67321,60d307b7-669f-44a8-9024-052630700016,61
62,"21, King Street, Avonmouth, Bristol, City Of Bristol BS11 9AP",Semi-Detached,2.0,https://www.rightmove.co.uk/house-prices/details/england-117347699-16109626?s=a99a82f1fec355bae98eb3d6a80928eb9113f47d9781f30ec28a78170946003b,51.5019,-2.702,0c9da456-4ce2-4f43-9a4a-7c2af05b7d8c,62
63,"87a, Portview Road, Bristol, City Of Bristol BS11 9JE",Semi-Detached,3.0,https://www.rightmove.co.uk/house-prices/details/england-116381174-16109638?s=8ab8339dba51b8d2561fa3ee82111cb7b2e3306e71d506cc4285f9597b65d605,51.49788,-2.69646,32164348-d9e9-4d54-964a-3b975b990cb3,63
64,"5, Northleach Walk, Bristol, City Of Bristol BS11 9RS",Terraced,2.0,https://www.rightmove.co.uk/house-prices/details/england-115906556-16416139?s=a3f18782153322fb84ea10361b05cb9f6c9c1263665f37af5456fbf7bbdc2394,51.48501,-2.66861,047c631d-536d-4f94-bf82-1b8083c45ffb,64
65,"20, Bradley Crescent, Bristol, City Of Bristol BS11 9SW",Terraced,2.0,https://www.rightmove.co.uk/house-prices/details/england-116332931-16109653?s=56a1a4fec458484ad0303076b5829db4bfb981ab78dd8f29d4403c6a4429a49a,51.48811,-2.67701,a41b5b35-9b67-4092-9a98-9d67abd979c8,65
66,"19, Springfield Avenue, Shirehampton, Bristol, City Of Bristol BS11 9TB",Terraced,2.0,https://www.rightmove.co.uk/house-prices/details/england-112291490-17943343?s=5e13c222f896d37cf4131b582fa695058b94895b6ce36a605cb65a2779587e58,51.48692,-2.68002,fab0db8b-7c27-47c5-9b48-82c4d1367ed8,66
67,"35, Cook Street, Bristol, City Of Bristol BS11 9JY",Terraced,3.0,https://www.rightmove.co.uk/house-prices/details/england-118743392-15186826?s=fdaa897b3fab88088d65dbc3f1e9007857f5924c0fe61d68f353a66127d51499,51.49674,-2.69255,b769a6c3-88b5-44cb-9f6a-f6273286349b,67
68,"40, Cook Street, Bristol, City Of Bristol BS11 9JX",Terraced,2.0,https://www.rightmove.co.uk/house-prices/details/england-45816657-15186823?s=9b6f795bcdb3b6b479c8ff8d4123d11a119fe244818f1829295113497c3db5b8,51.49673,-2.69299,285194be-ecdb-4175-848a-7c10634df81a,68
69,"Flat 2, 26, Springfield Avenue, Shirehampton, Bristol, City Of Bristol BS11 9TN",Flat,,https://www.rightmove.co.uk/house-prices/details/england-15186853?s=de9814825acd7a8dd9b1a1a9efa92ecd6a0453c11c000b0ac432e087c9caac5c,51.48719,-2.67988,61b0a77e-b3ca-41cd-bc78-906c2811905f,69
70,"21, Awdelett Close, Bristol, City Of Bristol BS11 0RQ",Semi-Detached,3.0,https://www.rightmove.co.uk/house-prices/details/england-115560518-16109614?s=a8d7add3eefcfc114c4242472a55d6ca4bc2693a323cf187fe16dcdcb3c129c2,51.50173,-2.65315,1b8cb458-82c1-411f-84e8-350c8709033f,70
71,"149, Mancroft Avenue, Bristol, City Of Bristol BS11 0HZ",Terraced,3.0,https://www.rightmove.co.uk/house-prices/details/england-107720516-15186811?s=04506636341242fe3aa39f88ee4e1dd03b27daa08c0a6b6748d1e55fc9334488,51.4942,-2.66572,b2346fa7-e570-42f7-b2c3-2576f799cfb3,71
72,"26, Priory Road, Shirehampton, Bristol, City Of Bristol BS11 9TD",Terraced,3.0,https://www.rightmove.co.uk/house-prices/details/england-115559741-15186847?s=cc5040923e728b38043ebc4b780c327cbcec09b23515751e9406b26b7885d722,51.48809,-2.6796,b3fec7f7-bf70-4f26-90c5-ed8b1bc78a5a,72
73,"10, Knovill Close, Bristol, City Of Bristol BS11 0SA",Detached,,https://www.rightmove.co.uk/house-prices/details/england-16716253?s=62bc7672556654064bdd6b65801764f2dc32380ea57ba4e074693d7739ca7dab,51.5038,-2.65318,d8fa34fe-25e0-4fde-97b8-80cfdecf1395,73
74,"68, Clifford Gardens, Bristol, City Of Bristol BS11 0EE",Detached,2.0,https://www.rightmove.co.uk/house-prices/details/england-116085842-14890366?s=b43dfce87011ee69bb2a2f25de1aac5432782f16484b20b40b0d214762169afb,51.48921,-2.67199,3786882d-c84d-4162-a52e-5083b7167f19,74
75,"14, Pages Mead, Bristol, City Of Bristol BS11 9LA",Terraced,3.0,https://www.rightmove.co.uk/house-prices/details/england-119661278-15793552?s=641f8009adab550dfaad9b084065c4b269c315a30f8bdf64fd7b0813a5199e45,51.49575,-2.69225,bc709b86-9fb4-4e01-9261-bbb16af28734,75
76,"Flat 1, 26, Springfield Avenue, Shirehampton, Bristol, City Of Bristol BS11 9TN",Flat,,https://www.rightmove.co.uk/house-prices/details/england-15186850?s=a929a16f9ee0961602793a58d5b9cd9783a613f0385fac96f4df02b0e6741ad5,51.48719,-2.67988,6d12e5f6-7a33-4008-a89f-3984e071c84a,76
77,"34, Lower High Street, Bristol, City Of Bristol BS11 0AY",Detached,3.0,https://www.rightmove.co.uk/house-prices/details/england-82166886-15186799?s=9aaa6692e5fbf969a63a16702fc7ce90232b76637ed642f2d08a9d641e031772,51.4933,-2.68098,8072a5bb-8b4b-44a0-b7a3-18517b7768fc,77
78,"57, George Boon Drive, Bristol, City Of Bristol BS11 0GF",Terraced,,https://www.rightmove.co.uk/house-prices/details/england-16970146?s=dd62449559398e5c59ac829c9fd2230afc5ccd9351996b9ee4744ceed93e6b74,51.5037,-2.65462,8fe67710-ea4f-4456-a70d-e9bfdbc976d6,78
79,"55, George Boon Drive, Bristol, City Of Bristol BS11 0GF",Terraced,,https://www.rightmove.co.uk/house-prices/details/england-16970143?s=ac070457559c5931d36725f171bac9e90ea6f40ae7e6f52e6429398a50be4a24,51.5037,-2.65462,80f6afc2-a6de-4f9e-bace-fb10d67f31e8,79
80,"51, George Boon Drive, Bristol, City Of Bristol BS11 0GF",Semi-Detached,,https://www.rightmove.co.uk/house-prices/details/england-16716223?s=7ba1d6bd0fc341fbd55b3683554def4bf6d5ed4849f0632c0dceb6c479ef4999,51.5037,-2.65462,7694d442-2735-4d4d-bb9a-833fff1101a8,80
81,"87, Portview Road, Bristol, City Of Bristol BS11 9JE",Terraced,3.0,https://www.rightmove.co.uk/house-prices/details/england-114666740-16109635?s=5f8886399ed9c4d94574c629893edcc743438633a47216265040cd11cc930f8a,51.49788,-2.69646,952a7145-e5f6-4112-870c-1f3f2daabb0e,81
82,"378, Portway, Bristol, City Of Bristol BS11 9UD",Semi-Detached,3.0,https://www.rightmove.co.uk/house-prices/details/england-116795978-14890447?s=ed79a7b124b37939fe947d0e0344a0f711e481640a05d46458110a7b535c1ec5,51.48661,-2.67224,a946127a-6aa1-422c-8c28-c0f51cf8da2c,82
83,"86, Springfield Avenue, Shirehampton, Bristol, City Of Bristol BS11 9TQ",Semi-Detached,3.0,https://www.rightmove.co.uk/house-prices/details/england-114845399-15186859?s=6d048da84bf9ae9c558b60070a336f22b9e812cda296bbe2f0e525057e71fbd1,51.48807,-2.68277,2994f299-aa0f-4123-8774-5236197d64a5,83
84,"53, George Boon Drive, Bristol, City Of Bristol BS11 0GF",Semi-Detached,,https://www.rightmove.co.uk/house-prices/details/england-16970140?s=fd0d55b66a7962715952557acf14bc38ab50a1fed0aff438a3bcba77369d65a6,51.5037,-2.65462,57b4e2f0-b2ba-4c3d-8e5d-6aae038cda61,84
85,"14, Musgrove Close, Bristol, City Of Bristol BS11 0SL",Terraced,4.0,https://www.rightmove.co.uk/house-prices/details/england-115737791-14890408?s=1b121a6b238675915dbcad25bb22fdb4f62be2ac52805b5a05e49041b9b30706,51.50608,-2.64717,3e70c260-b4ca-4a00-b225-d6b1f68346eb,85
86,"Flat 1, 63, Pembroke Road, Shirehampton, Bristol, City Of Bristol BS11 9SA",Flat,,https://www.rightmove.co.uk/house-prices/details/england-15793567?s=e9e0dc4571045eb81cddf7fd3b073cc855002f8b860e775b11d7ccc938141bf2,51.48927,-2.67847,380d7ee4-6346-4c44-9d88-a9456335a3d5,86
87,"522, Portway, Bristol, City Of Bristol BS11 9QQ",Semi-Detached,3.0,https://www.rightmove.co.uk/house-prices/details/england-115391111-15793561?s=f95177757132e3cd74361bb2b312e10bb21e3f265e84f7599692910fb0da6fab,51.48681,-2.68333,b8406cf3-0484-493d-9f51-d9b9c70782fe,87
88,"The Kilns, Quarry Lane, Bristol, City Of Bristol BS11 0QJ",Semi-Detached,3.0,https://www.rightmove.co.uk/house-prices/details/england-119407604-14890396?s=9f8a9acf5676474e6916d9922fb523fd9457075e3c7a1a2dbc51614270e7351d,51.50265,-2.64942,7a4745c0-cc19-471f-960a-ca8b14f7fbe5,88
89,"69, St Marys Road, Shirehampton, Bristol, City Of Bristol BS11 9PD",Semi-Detached,3.0,https://www.rightmove.co.uk/house-prices/details/england-115037309-92918922?s=2ca5dc3c079d6631266489032842ff56a54acbc421fe9d9e5d46020397ac2fbb,51.49201,-2.68658,8c828e45-5c02-467e-be8b-24d127658e73,89
90,"63, Lower High Street, Bristol, City Of Bristol BS11 0AW",Terraced,2.0,https://www.rightmove.co.uk/house-prices/details/england-111528371-14890363?s=c3f4ea7c547c4be79cb552e28cb5e27a7dd5ea38926419b8b43042a9d7a1dbbf,51.49455,-2.68287,98231023-9b69-4c54-a6fb-cc3345d0cbee,90
91,"53, Broadlands Drive, Bristol, City Of Bristol BS11 0PF",Semi-Detached,3.0,https://www.rightmove.co.uk/house-prices/details/england-111821036-14890390?s=370f12c4d4fdc8ba37d4607ae4d63cd364565beeb03056fdea52ff2e18531546,51.49944,-2.66047,9143bf77-18db-4f7e-9840-d7cca7c14cc1,91
92,"4, St Bernards Road, Bristol, City Of Bristol BS11 9UR",Semi-Detached,4.0,https://www.rightmove.co.uk/house-prices/details/england-34164789-14890450?s=daa19c2fc273d33c0d1deeafd4b9709e219916c6158356ddc569ce030c0ec975,51.48732,-2.67239,92985316-c7c1-440f-aa48-d1b6772de0f4,92
93,"22, Bradley Avenue, Shirehampton, Bristol, City Of Bristol BS11 9SL",Terraced,2.0,https://www.rightmove.co.uk/house-prices/details/england-114457688-14890444?s=bf5d67f88ac1e7fa57e0fe76002f881d4532891678d5755598b183ef3b056452,51.4873,-2.67729,ca474843-f46a-4009-9ec8-82980753ebaf,93
94,"47, Aylminton Walk, Bristol, City Of Bristol BS11 0SX",Terraced,3.0,https://www.rightmove.co.uk/house-prices/details/england-118773086-14890411?s=e710ebaa5f3d9fd6fca3f5a085311fb50d65f6166023962e58124c187c1f62fc,51.50622,-2.65423,2f504828-c5fc-474f-9349-ddec15659d3a,94
95,"96, Grove Leaze, Shirehampton, Bristol, City Of Bristol BS11 9QS",Semi-Detached,3.0,https://www.rightmove.co.uk/house-prices/details/england-114290717-15186832?s=84f416308ce23963d954b194f9fddefabfc071e3e5b2744c9b7e8596fa67aca6,51.48842,-2.68465,a72e393f-d1fd-468e-880b-fb93cdb39584,95
96,"125, Nibley Road, Bristol, City Of Bristol BS11 9XN",Terraced,3.0,https://www.rightmove.co.uk/house-prices/details/england-113188466-14890456?s=8932bee540410e9d23dede6177f2f7cc7ef814f0970b759f2f3b42235009d361,51.48326,-2.67464,4dbc8f94-4271-4179-9968-0fcaeacffec0,96
97,"2, Awdelett Close, Bristol, City Of Bristol BS11 0RQ",Semi-Detached,3.0,https://www.rightmove.co.uk/house-prices/details/england-117070439-15492067?s=2ec8e54e708cdcd03c34f7da3e42643cd70ad0cdc477ec5a0db6a103ca9bd1a9,51.50173,-2.65315,f05f6c28-5024-48db-8ebf-2b7decce3aaf,97
98,"165, Long Cross, Bristol, City Of Bristol BS11 0LZ",Flat,1.0,https://www.rightmove.co.uk/house-prices/details/england-121882016-92918904?s=1bc13b60c0c4cdbdebd1a0a475378e4ff7b747070cfe52834cfec843aead187a,51.50033,-2.66293,81ed325c-7e96-4279-8d56-c4e5b834f1a7,98
99,"33, Poole Street, Bristol, City Of Bristol BS11 9JT",Terraced,,https://www.rightmove.co.uk/house-prices/details/england-93197331?s=5b42a82e3f8235bc2acd0b811101ff06e5ea74f93d352028c178613b28352d39,51.497,-2.69357,c2b149cc-1109-4d60-9824-07ea0367e84c,99
100,"32, Lower High Street, Bristol, City Of Bristol BS11 0AY",Semi-Detached,4.0,https://www.rightmove.co.uk/house-prices/details/england-111252290-92918886?s=12b0c953d8e97c37bd089dd094f6c43f91becedc83be2fcb433b8836503be7f1,51.4933,-2.68098,91a48b57-4351-4cf6-88fd-1fece90f4ac1,100
101,"16, Meadow Grove, Bristol, City Of Bristol BS11 9PH",Semi-Detached,3.0,https://www.rightmove.co.uk/house-prices/details/england-114336299-92918925?s=459daa6761a39137bcbf42bf587bb94a5ee4b3be437f019f33871cd2dbdc0790,51.4931,-2.68386,a29e966c-6acd-4a56-a70d-5eea0ab5711c,101
102,"13, Old Park Road, Bristol, City Of Bristol BS11 9PP",Semi-Detached,3.0,https://www.rightmove.co.uk/house-prices/details/england-115232768-93197343?s=e5f8c2dcbe78f2c186ee9c8fa47472823acd95a6ab078d54ec323c9e0c1488cd,51.4923,-2.68284,99a2ee84-1438-4de3-8341-871187a0292d,102
103,"277, Long Cross, Bristol, City Of Bristol BS11 0NE",Flat,1.0,https://www.rightmove.co.uk/house-prices/details/england-64808573-16416121?s=5e2f668c18487a02005a7ade0da2dcb5bedbd0e8fae38274bf677c0db0f935a2,51.50268,-2.65922,72def27c-5214-44db-a9e7-fbb6672eebfb,103
104,"119, Henacre Road, Bristol, City Of Bristol BS11 0HB",Flat,2.0,https://www.rightmove.co.uk/house-prices/details/england-85309353-17636059?s=ecf88c8a41fbdd078d85de7109583f6eaaae10ce7d20649090dec2a8711b3ef9,51.49714,-2.66951,ef0313ad-e075-4064-bc7b-9a57441c8ac5,104
105,"Ground Floor Flat, 51, High Street, Shirehampton, Bristol, City Of Bristol BS11 0DW",Flat,2.0,https://www.rightmove.co.uk/house-prices/details/england-34147182-15492049?s=9853d5244b11721e34b6545dcc5b250f81fde8a27c7a8cfbe80a419ca7427f7b,51.48945,-2.67746,8ac8d336-2f1d-4ffb-869e-3193193aa756,105
106,"First Floor Flat, 51, High Street, Shirehampton, Bristol, City Of Bristol BS11 0DW",Flat,2.0,https://www.rightmove.co.uk/house-prices/details/england-34147182-15492046?s=114f8d9fb539b8e39311dd30396c749aab7035ad3118d5ddd2ca98fb6f7dcea0,51.48945,-2.67746,0e17a5c0-3d39-4d90-bef4-a28c6430085d,106
107,"12, Campbell Farm Drive, Bristol, City Of Bristol BS11 0LD",Semi-Detached,2.0,https://www.rightmove.co.uk/house-prices/details/england-121775525-15793531?s=ba9f6d17d5fb61feb1b2acc9b01cc0528f6af762109f91e608eb14e625550149,51.49995,-2.66552,bc3d774b-25ef-4f0a-ae22-cfdb0c286b7c,107
108,"69, Dursley Road, Bristol, City Of Bristol BS11 9XE",Terraced,3.0,https://www.rightmove.co.uk/house-prices/details/england-34559252-14890453?s=91b7c9cb5c41e38d82db417da85d9e8b8caf94812d2ba7e7fe3499ac51f7d63c,51.48388,-2.67767,c481cd70-a8fe-40fb-9746-5d402d2b8650,108
109,"83, Lower High Street, Bristol, City Of Bristol BS11 0AW",Terraced,,https://www.rightmove.co.uk/house-prices/details/england-14890360?s=ff7d121dc50edba60fa7c4cbfa1a3b26c7246275734fe2344ba0395b15eda813,51.49455,-2.68287,ab4dbc40-8359-4c15-a8d7-10b75ff85e4c,109
110,"Flat 8, 37, Park Hill, Bristol, City Of Bristol BS11 0UH",Flat,,https://www.rightmove.co.uk/house-prices/details/england-15186820?s=b595020014fa36a9ee04160a00ca5587289f81ba187b0b58bf412ef79a5b778e,51.48876,-2.67198,4e7eca4e-5071-4fe7-9b9e-32717da89bf3,110
111,"19, Campbell Farm Drive, Bristol, City Of Bristol BS11 0LD",Terraced,2.0,https://www.rightmove.co.uk/house-prices/details/england-112729508-15793528?s=c7194f9565e7383f598025defe19630ee2375abb4a47f27af1d21e668f0b03f1,51.49995,-2.66552,82c3fc25-95ee-4930-b360-94dfe791e245,111
112,"69, Cook Street, Bristol, City Of Bristol BS11 9JY",Terraced,3.0,https://www.rightmove.co.uk/house-prices/details/england-113970461-14890426?s=a1d63814391d7db96fe928576c53f55403b03c4d583a85f541a30caec3f7630d,51.49674,-2.69255,4103f196-7d09-48a4-9e3b-1a8a6efa48db,112
113,"14, Charbury Walk, Bristol, City Of Bristol BS11 9UU",Terraced,2.0,https://www.rightmove.co.uk/house-prices/details/england-116056913-15793579?s=e368b23d5c64d84aad1610181548eac343f28cbbd98f31720b3eeb055700009d,51.48417,-2.67321,e412b2be-7d5f-47d6-bc86-7ad6ef5584a6,113
114,"9, Ferndown Close, Kingsweston, Bristol, City Of Bristol BS11 0UP",Detached,,https://www.rightmove.co.uk/house-prices/details/england-14890417?s=afca0b9c806ade4366662cdea0c81cacbea7a0606b9804359f1fb46c274215c3,51.49406,-2.65765,b0641dfe-9fc1-4689-9d29-01cfdaade88e,114
115,"16, Avonmouth Road, Bristol, City Of Bristol BS11 9NE",Semi-Detached,3.0,https://www.rightmove.co.uk/house-prices/details/england-35567775-14890429?s=cadd58e06a3e94e19088bf724be5fad18d509efc0d406425be4c148c0f5668b5,51.49571,-2.6839,e9eae60b-37f4-4064-918d-db9e2fd83813,115
116,"2, Home Ground, Shirehampton, Bristol, City Of Bristol BS11 0HN",Semi-Detached,3.0,https://www.rightmove.co.uk/house-prices/details/england-112122470-14890384?s=a686077d8f04b74cb9687df03d427c254fdaf7929375c7f1de357371e87e4821,51.49197,-2.67779,0d30992f-f408-4088-9c86-b7fd574f5186,116
117,"39, Woodwell Road, Bristol, City Of Bristol BS11 9UG",Flat,2.0,https://www.rightmove.co.uk/house-prices/details/england-113876099-15793576?s=1dffa4bb02ba43eddc897753f4c7e868d993fcf801a2a7159c1fd57b51ae9923,51.48553,-2.67165,0b441565-b670-4744-b7cf-712362141eb4,117
118,"93, Kings Weston Avenue, Bristol, City Of Bristol BS11 0AH",Semi-Detached,3.0,https://www.rightmove.co.uk/house-prices/details/england-110534654-17943262?s=b762aac92c76455f2aaed76c113aa7520875832b1a2cd579c0aa218b40746674,51.49521,-2.6764,9cbc98d8-a1c4-4104-acbc-31d5972d20c8,118
119,"17, Moorend Gardens, Bristol, City Of Bristol BS11 0JL",Semi-Detached,3.0,https://www.rightmove.co.uk/house-prices/details/england-55693633-93197295?s=d7fde078c5c7a9de4f98c916dd5f5cb12564b6b3294409d0adf73cda5302abcb,51.494,-2.66802,845ff8b2-508e-4072-abaa-eb57c02d613f,119
120,"388, Portway, Bristol, City Of Bristol BS11 9UD",Terraced,3.0,https://www.rightmove.co.uk/house-prices/details/england-111774137-15492118?s=bae9c994052786d76ad1e94d97bef731404563f6b3e0e3925ac9327333c378d8,51.48661,-2.67224,21a2d9c0-7d14-4da1-9509-8c8be6d88a9a,120
121,"45, Kings Weston Avenue, Bristol, City Of Bristol BS11 0AQ",Terraced,2.0,https://www.rightmove.co.uk/house-prices/details/england-111937463-14546770?s=052be0c816ddba3a36bf0202dec8fd72b9c3530053b2f996b72f4c1540071fb9,51.49484,-2.67884,5fcaa149-0fee-4ede-a90b-59a62c739498,121
122,"15, Little Mead, Bristol, City Of Bristol BS11 0RH",Terraced,3.0,https://www.rightmove.co.uk/house-prices/details/england-63553809-14546797?s=c31586ab01fdb316f94103ec338f6ff50e7739b346ad29b5f1f2674c3ea06707,51.50101,-2.65343,bcc9dae7-1398-4f35-83d4-250e70fd2279,122
123,"68, Meadow Grove, Bristol, City Of Bristol BS11 9PH",Semi-Detached,3.0,https://www.rightmove.co.uk/house-prices/details/england-112407335-14890432?s=2e23434495198b0aa93a018a3e0dbe791c1f6779ed3e1aa3dbe5bcd1d1d0fe4f,51.4931,-2.68386,6c183a30-1c35-4096-88c1-ec98bef65d68,123
124,"10, Banfield Close, Bristol, City Of Bristol BS11 0QY",Semi-Detached,3.0,https://www.rightmove.co.uk/house-prices/details/england-109228781-92918907?s=681521a3c03966d358afb14c8f2093d1b428eb391a9f5e899d13546a3903cb1c,51.4981,-2.65915,24b31be9-46ed-410b-9efb-ae3930ca16e2,124
