,address,propertyType,bedrooms,detailUrl,location_lat,location_lng,property_id,index
0,"62, Southway, London, Greater London NW11 6SA",Semi-Detached,6.0,https://www.rightmove.co.uk/house-prices/details/england-96567610-16842463?s=d49be94189de7a87e8d210695c5cafebd4bb56c74040143d6639295ade28e070,51.58147,-0.18305,b39f2757-440a-4dcc-aa8a-8efa677f7f4f,0
1,"108, Bridge Lane, London, Greater London NW11 0ER",Flat,1.0,https://www.rightmove.co.uk/house-prices/details/england-60924895-15955666?s=4a2cf1b51b7000fad44a3d19afa0012f9f95e8fc3825ad7568bff9cd820d471d,51.58559,-0.20526,630efeb2-d52b-4352-8aed-d49a4cf5543c,1
2,"16, Sneath Avenue, London, Greater London NW11 9AH",Semi-Detached,4.0,https://www.rightmove.co.uk/house-prices/details/england-30667535-16267360?s=b14b9befb660be40a20d47c1b97a6928920ccbc130d9313f1241d247668a4c4c,51.57701,-0.20343,bd88d016-0732-4011-af14-041db32b7e11,2
3,"43, Gainsborough Gardens, London, Greater London NW11 9BJ",Semi-Detached,3.0,https://www.rightmove.co.uk/house-prices/details/england-96559252-16842520?s=477c02b10c7a430ff035b285676507053ee695d2fff5d7a00a78910d62033b1e,51.57378,-0.20385,b3495a00-8c74-4fb4-b69d-db2d59e7d571,3
4,"13, Hampstead Way, London, Greater London NW11 7JE",Detached,5.0,https://www.rightmove.co.uk/house-prices/details/england-114109625-18095434?s=40133488546146e359c214d421236c38660f9f1e20a59d3f88d780ab7cef3a2a,51.5705,-0.18334,ea3d75ec-b288-4066-b151-cc366c552ff5,4
5,"Flat 72, Heathcroft, Hampstead Way, London, Greater London NW11 7HL",Flat,3.0,https://www.rightmove.co.uk/house-prices/details/england-116415569-16267327?s=245850ea45fa1b989917fb2834e12d92b68d379d0471e66c2a5911cf2d7248f8,51.57243,-0.1863,3fab2997-1955-4689-9fb1-772f9f33eab0,5
6,"29, Ingram Avenue, London, Greater London NW11 6TG",Detached,6.0,https://www.rightmove.co.uk/house-prices/details/england-97733516-15955696?s=6acb371cc328ce0a9f9b7a1dcf6a4e5bf9e0533d96da4040a7d366849170fe9c,51.57364,-0.17716,0182e1c6-4c7c-423b-acdb-b53c579d8b57,6
7,"Flat 16, Dolphin Court, Woodlands, London, Greater London NW11 9QY",Flat,,https://www.rightmove.co.uk/house-prices/details/england-16267378?s=757f45ffe2280dcf7db93a792f7c5aadf69823030ece3808aa585af98105cadf,51.58116,-0.2102,925680a3-3199-4916-81a4-778228e190eb,7
8,"Flat 6, Belmont Court, Finchley Road, London, Greater London NW11 6XS",Flat,,https://www.rightmove.co.uk/house-prices/details/england-16267309?s=a5aacaaf34bbce645e3a1b2452944bb68001918448ecba1a62ea818795971bd2,51.58397,-0.19955,8502cebb-8248-4c48-b2a7-ec890212f26f,8
9,"28, Park Drive, London, Greater London NW11 7SP",Semi-Detached,4.0,https://www.rightmove.co.uk/house-prices/details/england-47838965-18095437?s=508c726bdad80460479e999ef5d91f281f3c481af19ef8c845c7b8b8087ef759,51.56934,-0.1896,9ae1f726-9c03-4143-a3ae-ba06be796081,9
10,"Flat 22, Dudley Court, Finchley Road, London, Greater London NW11 6AE",Flat,3.0,https://www.rightmove.co.uk/house-prices/details/england-122247158-17138638?s=15b23ff4450349ccd8cde719d68740f3edb7a11319c2080bfe39c9f2ec43fdcf,51.58756,-0.19941,ab71bfa9-c0c2-4ee6-b14a-3ba65a39e9e1,10
11,"32, Powis Gardens, London, Greater London NW11 8HH",Semi-Detached,,https://www.rightmove.co.uk/house-prices/details/england-16267336?s=320abd2636d679c48603e9a656cd69004349f2db1860e66894ed11dd3bc06294,51.57359,-0.20299,be15732b-7350-4b8e-9f30-e85c1dd2c34a,11
12,"15, Raeburn Close, London, Greater London NW11 6UH",Semi-Detached,5.0,https://www.rightmove.co.uk/house-prices/details/england-122843030-15955699?s=2e4e1d3dac4e8618ab51f7cd6fdae8824c82aa36b64a6a73509c041d441de4ae,51.57929,-0.18213,675d5120-25cf-40d4-a8a5-26792d3fcaa8,12
13,"7, Hill Close, London, Greater London NW11 7JP",Detached,5.0,https://www.rightmove.co.uk/house-prices/details/england-120499685-16842487?s=f6838ffad47dc48cc529a20c91b3639576acecb6487c94e5586fa5f8e4d22187,51.57907,-0.19108,fbb874a8-5fe3-4493-8445-92e5cc120f12,13
14,"44, The Vale, London, Greater London NW11 8SG",Semi-Detached,4.0,https://www.rightmove.co.uk/house-prices/details/england-121114052-16267345?s=63c7d10f13a08305a7590530ccf0617abb265738affe2b6babb68c422b446cf9,51.56925,-0.20114,178f103b-864d-401c-8058-0bc6c7cb4246,14
15,"Flat 14, Waterlow Court, Heath Close, London, Greater London NW11 7DT",Flat,1.0,https://www.rightmove.co.uk/house-prices/details/england-112942979-15955714?s=88b35a34a904cadc4ee4fdcb5a4cc4ff1593f42465d79d61e8b3439df432e645,51.57284,-0.18931,29002c76-f9ce-42f1-b2c4-98e4e004e477,15
16,"80, The Vale, London, Greater London NW11 8SJ",Semi-Detached,5.0,https://www.rightmove.co.uk/house-prices/details/england-78311467-15955747?s=afbb87b58def62af246ccb9c837724c5f1f71e602b031f5989b65e31f0aea747,51.56733,-0.20497,2d54e269-526f-4be8-a87f-b1f79c8427e6,16
17,"2, Westholm, London, Greater London NW11 6LH",Semi-Detached,2.0,https://www.rightmove.co.uk/house-prices/details/england-46527928-15955684?s=e0424387e3f40e8be7556347157f8e9604df9e2a9286fc308eff29c379e377b0,51.58731,-0.18845,b48291e2-9a0a-4552-806d-89df7b025cb4,17
18,"2, Asmuns Place, London, Greater London NW11 7XG",Semi-Detached,3.0,https://www.rightmove.co.uk/house-prices/details/england-122900486-15955732?s=f95ed03e104afe26ef2171ddedf98ce63e1d17642a2f9bdc32ace4363db6504f,51.58403,-0.19782,b8922bee-23bd-45a1-99ef-af22ca4b23ac,18
19,"Flat B, 18, Elmcroft Avenue, London, Greater London NW11 0RR",Flat,1.0,https://www.rightmove.co.uk/house-prices/details/england-122055152-15955672?s=12478b578be0ecdbb295d8d741ef6cfff482255cfd836e9aa0184657b8ef8f30,51.57533,-0.19931,aa17afa3-5c7a-4f66-8b48-e78655d90193,19
20,"152, Willifield Way, London, Greater London NW11 6YD",Semi-Detached,2.0,https://www.rightmove.co.uk/house-prices/details/england-121505234-15955702?s=9e3ba26e2ca0283228be54fe6b64fd20c181e561163b509fa4237280a54df489,51.58573,-0.19688,fa11778c-9d96-4df1-b981-8b5a5695fd22,20
21,"95, Hampstead Way, London, Greater London NW11 7LR",Semi-Detached,6.0,https://www.rightmove.co.uk/house-prices/details/england-121210517-17138695?s=70d34a98fc04cf3a0b94aa9dad41a18a56eed521daf839afd7a026d26dd71905,51.57727,-0.19101,f4b8ccbd-a382-4e43-9ac6-fd658d23e2df,21
22,"16, St Marys Road, London, Greater London NW11 9UG",Terraced,6.0,https://www.rightmove.co.uk/house-prices/details/england-119380682-15955771?s=a289a68046f34d4c13facf2f227343a207c7ada3f09e4d88c95b91d1a30bf88d,51.5764,-0.21024,763fa4cd-5752-46a0-af42-24070e636ca2,22
23,"27, Britten Close, London, Greater London NW11 7HQ",Flat,2.0,https://www.rightmove.co.uk/house-prices/details/england-125563415-16842484?s=d1d17dc20282e2f75a8a0726e3c16439392b8afd3871b34c6e996767ec00e0e8,51.57082,-0.18679,4ae0c602-33d3-467d-a6fe-08686f52a391,23
24,"186, Falloden Way, London, Greater London NW11 6JE",Flat,2.0,https://www.rightmove.co.uk/house-prices/details/england-118850486-15955681?s=2e06971a9b6d70361cd75ed45d6e4ee753dfa6536b032e5a2ca74ef8ca05035d,51.58591,-0.18562,d08bf114-1d82-4764-9781-00f0972dc1d3,24
25,"1, Compton Close, London, Greater London NW11 8SX",Terraced,4.0,https://www.rightmove.co.uk/house-prices/details/england-116619776-15955753?s=b4fab87dfbeae9afe7c421ba06cebebdec91df0993e6a677c30a412f00e8abf3,51.56234,-0.21382,b7532122-f850-4443-80f4-7ee0cca4ba0d,25
26,"112, Beaufort Park, London, Greater London NW11 6BY",Flat,3.0,https://www.rightmove.co.uk/house-prices/details/england-114519164-17473720?s=273481de3051b971905521f3bed4ffb41b5bcabef4c5df5c9f944deaf340d5a5,51.58938,-0.19472,13c61d71-f94a-4764-b098-ea014fe227e5,26
27,"95, Erskine Hill, London, Greater London NW11 6HJ",Semi-Detached,4.0,https://www.rightmove.co.uk/house-prices/details/england-125012966-17138647?s=eb752aff26c93f7d945b61294db0376d6402313a7d44c269bfdcc559e81706b8,51.58569,-0.19457,c6be18ac-fa8e-4f80-905b-4b71c27ec0d5,27
28,"Flat 3, Grafton Court, 983, Finchley Road, London, Greater London NW11 7HB",Flat,,https://www.rightmove.co.uk/house-prices/details/england-16842478?s=90cd4eff799a2ea06d30cc9cf710ee53dc3140d5fc304a6e0c224bdf4a913dcf,51.57801,-0.19791,51e56fa0-11cd-4ba8-ba56-b93960973753,28
29,"49, Brookland Rise, London, Greater London NW11 6DT",Detached,3.0,https://www.rightmove.co.uk/house-prices/details/england-121443953-17793877?s=7a59e1867dd8416d6536a1f1d43c5baad51b0248a0895de038731e35e26d6877,51.58948,-0.18937,12f51ab9-ac57-4da1-a545-ceb7cc09848e,29
30,"113, Willifield Way, London, Greater London NW11 6YE",Detached,5.0,https://www.rightmove.co.uk/house-prices/details/england-117660962-15955705?s=6d489a418810db3bd82dcb0ee15f5ea3444fddcb3d0baa2f93b23816f0db1afc,51.58464,-0.19649,9676ae6e-407f-42f9-b854-29482799a230,30
31,"18, Alba Gardens, London, Greater London NW11 9NR",Terraced,,https://www.rightmove.co.uk/house-prices/details/england-15644923?s=64a2dc0c843b734aadd5223e61b0cf718cd133acba9157cbfae9974757b4d565,51.57895,-0.20653,f071a262-f747-4866-90c4-58b820bd59a8,31
32,"9, Middleway, London, Greater London NW11 6SN",Detached,5.0,https://www.rightmove.co.uk/house-prices/details/england-125417591-15955690?s=dcf89b415084cfabc4959f4edcadc6fc27440868aa0760622e8212540facb53a,51.58233,-0.18634,6c33017c-82ec-451c-b943-b8734ac35db8,32
33,"Flat 7, Orchard Mead House, Finchley Road, London, Greater London NW11 8DJ",Flat,2.0,https://www.rightmove.co.uk/house-prices/details/england-121403810-15644884?s=4a3310dfacf18e43eb8f683fb4a773a2dcdabbfce7046bff489299771ee35bf8,51.56361,-0.19747,9c728f30-adfd-4ad2-b7f4-3fb5de787f2d,33
34,"Flat 39, 1b, Hodford Road, London, Greater London NW11 8NL",Flat,,https://www.rightmove.co.uk/house-prices/details/england-17138710?s=e6d2030f07841979c518c6a480af02a56e10daec39ed83e2599c22f06dd4ad19,51.56623,-0.1978,e442a50f-1b30-4deb-a97a-87082b95ab2d,34
35,"58, Woodvale Way, London, Greater London NW11 8SQ",Flat,2.0,https://www.rightmove.co.uk/house-prices/details/england-132516581-15955750?s=90142f9182ec21d309dfee04b320710f50d8d8d287630fa47d93d8d0057b0da2,51.56259,-0.21309,495bc953-cdc0-43fc-b5be-2cd9a43b9bc2,35
36,"51, Leeside Crescent, London, Greater London NW11 0HA",Semi-Detached,,https://www.rightmove.co.uk/house-prices/details/england-15955669?s=a74fd784e4852247d75861f7b47fc794cd2abb86ab0d608904e209ab8846172a,51.58041,-0.202,8b7d04ed-b7f3-4b3b-84d6-d25cc2dcb414,36
37,"82, Corringham Road, London, Greater London NW11 7EB",Detached,3.0,https://www.rightmove.co.uk/house-prices/details/england-120512810-17138680?s=14a5f3a09f2922f8ff9e2ae40338885ba45dbcb0a9869bc0e721bd5417af11a3,51.57401,-0.18927,5cd60ee5-13c3-4094-9c4d-f25a07bdd97e,37
38,"36, Riverside Drive, Golders Green Road, London, Greater London NW11 9PX",Flat,,https://www.rightmove.co.uk/house-prices/details/england-15644926?s=b8cb7409c070766e7ea8d71b71140824b01c273007a36f92097d1d0399529ba0,51.58072,-0.2105,8b80cc4e-0976-40dc-9748-1a9833eaaf6c,38
39,"4, Hill Rise, London, Greater London NW11 6NA",Terraced,4.0,https://www.rightmove.co.uk/house-prices/details/england-121332110-15644851?s=d259e9c5c5d8e6e53a60d9cc7d2d042c5c5d50ac5aa448d1cedbc172aea28a4f,51.58704,-0.18268,5b3deb4b-41fa-45f5-8b9c-0bee5bc96553,39
40,"Flat 10, 452, Finchley Road, London, Greater London NW11 8DG",Flat,,https://www.rightmove.co.uk/house-prices/details/england-16842499?s=326c0476e4d53752e1a8e5e5a2c92015bfb6bd30a112da3b9f09a836d15c0549,51.56298,-0.19692,a63dfed1-e8bf-48f4-89fb-055b75add1fb,40
41,"18, Corringham Road, London, Greater London NW11 7BT",Semi-Detached,5.0,https://www.rightmove.co.uk/house-prices/details/england-121637771-16267312?s=0f8c6941f786f035afd3a17ad5f5dc4d4844125fb3806a8ab1014221309f6cad,51.57545,-0.19498,92ab045a-e855-4120-bb23-b2a93941e7c7,41
42,"11, Corringway, London, Greater London NW11 7ED",Terraced,,https://www.rightmove.co.uk/house-prices/details/england-17138683?s=e89bc2dce8729c5c0a1211215ceebfc92b8f555ada158a489f47683817918c92,51.57366,-0.18971,5e951b06-d850-47aa-b047-1451955cfebd,42
43,"Flat 35, West Heath Court, North End Road, London, Greater London NW11 7RG",Flat,1.0,https://www.rightmove.co.uk/house-prices/details/england-119294735-15955726?s=86e2b68430f896b11b2accfa4cc86740de44fd19d96171a25ad19c0130a083c5,51.5707,-0.19055,809dc6e8-564b-4cd6-905e-69ac2e3ba9c1,43
44,"5, Morland Close, London, Greater London NW11 7JG",Detached,5.0,https://www.rightmove.co.uk/house-prices/details/england-88940098-15955720?s=9a8eb8234f93cbe85024ae04f4e985207620374a11016cfd922960394763347c,51.57033,-0.18407,830e41b6-cdc1-44d2-ad9b-71f5a9f5905e,44
45,"Flat 1, 21, Hodford Road, London, Greater London NW11 8NL",Flat,,https://www.rightmove.co.uk/house-prices/details/england-15644896?s=a1885556dd85d7074104393d8d9aa705a7c4695c48ee223f71fdf24d2b05bd78,51.56623,-0.1978,db384aa1-e8e5-43f7-902f-6109ad74c4d5,45
46,"25b, Beechcroft Avenue, London, Greater London NW11 8BJ",Terraced,0.0,https://www.rightmove.co.uk/house-prices/details/england-112126019-17138701?s=2f7691361a2f994e71c4caa982d9cd371aad33bcb20fe60d7cf92b4bcf1b9aa2,51.57462,-0.19992,f9d5f695-f22c-495b-a754-a7c98aef673b,46
47,"Flat 8, 452, Finchley Road, London, Greater London NW11 8DG",Flat,,https://www.rightmove.co.uk/house-prices/details/england-16842496?s=a6ab9eaa4cf2c4d993a580c436f3bd0b8a35347cfb76bfd19707c2ffb9215f43,51.56298,-0.19692,9b320d35-b132-4740-8361-9337936c3871,47
48,"Flat 1, 21, North End Road, London, Greater London NW11 7RJ",Flat,,https://www.rightmove.co.uk/house-prices/details/england-15644869?s=4336f230a6cd0f58bbf5583329c4e018c3ecdf5ddd6ecf0330d5758c2655c67b,51.57145,-0.19211,dededc8d-704d-4c43-9698-995e227cc8a6,48
49,"813, Finchley Road, London, Greater London NW11 8AJ",Semi-Detached,6.0,https://www.rightmove.co.uk/house-prices/details/england-104117642-15644875?s=a6d406d5f5a1f0a3319a6c9b31f2e0719e4fcdf89914fb4bf733bac2e983ddee,51.5679,-0.19542,aa36216a-1ec9-4536-a59e-91463c2c948e,49
50,"73, Leeside Crescent, London, Greater London NW11 0JL",Terraced,5.0,https://www.rightmove.co.uk/house-prices/details/england-120678149-15644830?s=012c931685d60714443de1369ee78a4f5ace32133dbc6f67ddbc2f08eb69d5b2,51.58026,-0.20374,d8a7b93b-7b74-4434-a0c9-2221c5a954d4,50
51,"25, Ridge Hill, London, Greater London NW11 8PR",Semi-Detached,5.0,https://www.rightmove.co.uk/house-prices/details/england-84018159-15644905?s=c9dd41d452b5dbe77bbccc447aef0b3084cfbd6f92f32658077af5a01bf48557,51.57105,-0.20742,7be1da8b-cdf2-4de5-8501-668b80db5afa,51
52,"8, Hallswelle Road, London, Greater London NW11 0DJ",Semi-Detached,6.0,https://www.rightmove.co.uk/house-prices/details/england-131464175-16267282?s=b32b51a4ff67544d23756c8eff2408901fdddd1189556af5a8bc64dcf1cbf2ea,51.5849,-0.20182,97f68f01-0557-4820-a29f-33dc52e0d48c,52
53,"Flat 1, 106, Hodford Road, London, Greater London NW11 8EG",Flat,,https://www.rightmove.co.uk/house-prices/details/england-16573285?s=e20c2da0964c8682d3eeedf7aeefea7347d9b0a1d0b97d42e759866383455a61,51.57143,-0.19673,c93df4ed-7c43-498f-9614-8e8b64d8c8a5,53
54,"19, Brookland Hill, London, Greater London NW11 6DU",Semi-Detached,3.0,https://www.rightmove.co.uk/house-prices/details/england-119089067-15644842?s=8c1934f04531af656391de40329fc905a0e1c8c909341a22bbe8d41c4961a9ca,51.58839,-0.18898,20de080d-8b95-4fc4-8195-e407164dff60,54
55,"48, The Vale, London, Greater London NW11 8SG",Semi-Detached,,https://www.rightmove.co.uk/house-prices/details/england-15644908?s=3a6c71936e00d95ff0d5f89f459180381ec1d3a4265929b105003d9c24defce4,51.56925,-0.20114,239f3924-5b1b-48ce-93c4-01c0af38032d,55
56,"Flat 8, 106, Hodford Road, London, Greater London NW11 8EG",Flat,,https://www.rightmove.co.uk/house-prices/details/england-15644887?s=4977be8c50ef45543d7835ce694b72796f98f23113c5330132e492e0b9b203cf,51.57143,-0.19673,e2b50d1f-1d5f-43c5-b52e-d4c343cc7fad,56
57,"1, Wessex Gardens, London, Greater London NW11 9RS",Semi-Detached,5.0,https://www.rightmove.co.uk/house-prices/details/england-41355449-15343687?s=8c30a601761222dff2e8e3818c31ec9be1ebb87979b13c6cc86d2168ca337a70,51.57178,-0.20826,c91ef5f8-05a9-4bf9-b920-b045040792d7,57
58,"44, Northway, London, Greater London NW11 6PE",Detached,3.0,https://www.rightmove.co.uk/house-prices/details/england-117728816-16573252?s=85bcaee92393cbca734690782c348298195b0acc70cfdf96c1cd1d973e5c9332,51.58251,-0.18676,5535c666-5118-45c4-a166-de03b6b8d42f,58
59,"18, Midholm Close, London, Greater London NW11 6EB",Flat,2.0,https://www.rightmove.co.uk/house-prices/details/england-115684697-15343618?s=2e1830bafc0f0b963808736fc9a2397f858866729988441031fd6a1a48d3a249,51.5888,-0.18637,170fa94d-74a8-4186-9225-aedf70e73abb,59
60,"17, Hogarth Hill, London, Greater London NW11 6AY",Semi-Detached,2.0,https://www.rightmove.co.uk/house-prices/details/england-74890171-16573249?s=4b1ec8f8688713ec4e85ff52a3638f80e1b759d414f197d71c4fc837bf529bef,51.58709,-0.19784,76cd6c85-9207-4a0b-b95b-86e9d4503dc5,60
61,"Flat 24, Heathside, 562, Finchley Road, London, Greater London NW11 7SB",Flat,,https://www.rightmove.co.uk/house-prices/details/england-15343642?s=43d985d5dfa263442ea5f028617cbd111b70966c4ca61bf4b653ad583b462faf,51.56869,-0.19438,351fab27-94c7-42ef-a36c-3684a537edf7,61
62,"46, Southway, London, Greater London NW11 6SA",Semi-Detached,7.0,https://www.rightmove.co.uk/house-prices/details/england-115437584-17473759?s=95e883c02f6ffda705ee1e87d93994bf8e153c10843ddf7d9a618fe6b8532588,51.58147,-0.18305,2d1d61e7-8882-49ae-abf0-08163fb39cfc,62
63,"6, Woodside, London, Greater London NW11 6HH",Terraced,4.0,https://www.rightmove.co.uk/house-prices/details/england-113966798-16267294?s=911c764c1e1bcd1404ada28b35486a0692b48e149834c6ac2af6e68978e14b7d,51.58522,-0.19286,e589f9c2-b27a-472d-b78b-eb1ea984a846,63
64,"5, Thornton Way, London, Greater London NW11 6RY",Detached,4.0,https://www.rightmove.co.uk/house-prices/details/england-120246911-16267306?s=69e78f9bfa2b85f49e6f759262ddf2e7b5ddcee60e141fe42099ae90dc221e7b,51.58086,-0.18423,5b660fd0-bafe-4d1f-b748-f984e753e54c,64
65,"152, Hampstead Way, London, Greater London NW11 7XH",Terraced,3.0,https://www.rightmove.co.uk/house-prices/details/england-108161873-16267333?s=f2ff93bba7fddd86ee16626e2b2cd645b49448ffc32f7da7dc84ef5fc1beda24,51.58304,-0.19771,fce0fab1-5ebb-47c6-a723-2de7f4efd724,65
66,"Flat 3, The Templars 1073, Finchley Road, London, Greater London NW11 0PU",Flat,,https://www.rightmove.co.uk/house-prices/details/england-17793862?s=74198239b5fd701749b389a068a7fbe761a8ff14295db410e03eb4a9b06c1410,51.58045,-0.19897,1d6da24f-e53b-4e68-9bef-cc122c7b5957,66
67,"Flat 46, 1b, Hodford Road, London, Greater London NW11 8NL",Flat,,https://www.rightmove.co.uk/house-prices/details/england-15343669?s=c8a110e5bd4e84df03db48aa325925c37e45df48c30d4854659ccde66f84b978,51.56623,-0.1978,3409e8c2-a7eb-4c0a-9bcb-55adbd50a5db,67
68,"25, Eastholm, London, Greater London NW11 6LR",Semi-Detached,,https://www.rightmove.co.uk/house-prices/details/england-15343630?s=da0aca555614bfc01e3333770e2acdee7ce2aadb74b880f9a15fa19136e7c665,51.58709,-0.18586,b19d1b60-f187-440f-9bb3-ccc5d56eb1e0,68
69,"18, Westholm, London, Greater London NW11 6LH",Semi-Detached,2.0,https://www.rightmove.co.uk/house-prices/details/england-118729961-15343627?s=716b353f82aa9738ef832a22496dfdd6c66a8606efccb19c8bd67d6cfc099d2b,51.58731,-0.18845,186f0c27-c0be-4f9a-b1e6-e52d5e717480,69
70,"71, The Vale, London, Greater London NW11 8TJ",Semi-Detached,,https://www.rightmove.co.uk/house-prices/details/england-15343672?s=4a0d78890b7b68550941c6a801a0e4220f6fcb996c1df7408406e2e12738b532,51.5676,-0.20539,45599ada-58aa-4b3c-a64a-cf750351b4c1,70
71,"25, Asmuns Place, London, Greater London NW11 7XE",Terraced,,https://www.rightmove.co.uk/house-prices/details/england-15955729?s=a8dcd8460a9f4a42054d1b120c5403b5e62b38cc4eaf96b3188f45e7a1e0de0a,51.58404,-0.19854,2ecb7eb0-9338-48a0-abcf-c4d51c9d5440,71
72,"Flat 2, 209, The Vale, London, Greater London NW11 8TN",Flat,,https://www.rightmove.co.uk/house-prices/details/england-15041776?s=546ccce0f97ec24ce8a477a7b8af276f37bc5f11d41dcfec90bcb72086c72a09,51.5635,-0.21334,77d99148-734a-48dc-bb83-d80e730c899e,72
73,"72, Golders Manor Drive, London, Greater London NW11 9HT",Detached,6.0,https://www.rightmove.co.uk/house-prices/details/england-133117682-16842535?s=21c70e2a143dc7b4c33dc9250de45be1fc783c18defcee021d2c1dfe17c4cbae,51.57912,-0.21187,dd3618d9-92c8-4d32-b8dc-31b7682a5a83,73
74,"Flat 4, Waterlow Court, Heath Close, London, Greater London NW11 7DT",Flat,1.0,https://www.rightmove.co.uk/house-prices/details/england-113483237-15343639?s=5ea4547fcee1607ad94c62a33aba25d0cf961b392c32c94ed68bddf67c38f5b7,51.57284,-0.18931,9a4e0ec0-8aee-4b13-87eb-21bc219960b9,74
75,"6, Havanna Drive, London, Greater London NW11 9BB",Detached,6.0,https://www.rightmove.co.uk/house-prices/details/england-32359254-15343675?s=c42ec41a27e50a22cf793c00cdb684613e61403eee26cf9b3e5f23e9e8d8e387,51.58536,-0.20816,ac707b6c-9dfd-4ab0-9e34-576cffb36eb1,75
76,"61, The Vale, London, Greater London NW11 8SE",Semi-Detached,2.0,https://www.rightmove.co.uk/house-prices/details/england-115285310-16267342?s=4298d9badb89a35d4fb16d3cf525018465fe484a28250ee639cdca30cc065a60,51.56909,-0.20259,c7407bed-51c0-41a6-83f2-858c388600aa,76
77,"7, Temple Fortune Lane, London, Greater London NW11 7UB",Semi-Detached,,https://www.rightmove.co.uk/house-prices/details/england-15041743?s=856d32277ccb0a01cc5dc144a36bb91b40a9dd70cbf75741d6c33da129e00f7c,51.58023,-0.19609,a137e275-1fe5-4413-afb9-59957bdad36b,77
78,"44, Asmuns Hill, London, Greater London NW11 6EU",Terraced,2.0,https://www.rightmove.co.uk/house-prices/details/england-112134749-15343621?s=4dfebd12814693323bae1bb98b7d4ce14d9d24053c7857d2c7c038f07d6433df,51.58489,-0.1949,0988b0f1-6b0b-4e2a-bf9a-486ad48acacc,78
79,"37, Hallswelle Road, London, Greater London NW11 0DH",Terraced,5.0,https://www.rightmove.co.uk/house-prices/details/england-41670977-15644821?s=847e54b21c2e37d3b137b97529a790ec9a36de94be6e014b8e2e5793b9b0e2a2,51.58454,-0.20155,057c7154-f556-42cf-a031-3b605744af52,79
80,"27, Riverside Drive, Golders Green Road, London, Greater London NW11 9PX",Flat,,https://www.rightmove.co.uk/house-prices/details/england-17473819?s=565a0aadb5d5e9a9a56e2edca82ad723fd5ab8d1683d0856592244e43ffd4054,51.58072,-0.2105,bfdc6d7b-18c1-4970-be20-85054a6e4742,80
81,"6, Beverley Gardens, London, Greater London NW11 9DG",Semi-Detached,,https://www.rightmove.co.uk/house-prices/details/england-15955762?s=f4547ac49a5cfa385b0820993536b570a28d3a9607a086ec69038f5c5a9e1423,51.57673,-0.20835,f1ecd7c1-4a69-4b22-b05f-969fbce9b182,81
82,"11, Templars Avenue, London, Greater London NW11 0PB",Semi-Detached,6.0,https://www.rightmove.co.uk/house-prices/details/england-119083478-15343615?s=09d9f1c46edbfd5e816427e5f3afe7820f1b117cc793ea1933d22d4b0785f94e,51.57657,-0.19797,d01f5d0a-f407-4c33-b56d-f533fd3894cd,82
83,"166, Bridge Lane, London, Greater London NW11 9JY",Semi-Detached,,https://www.rightmove.co.uk/house-prices/details/england-15343684?s=39d3043988839a898f901cb8121c7baa269552b0cb26283715cbb732a0d42cc0,51.58693,-0.21113,418901c6-03e4-4c23-86da-0497eaf759a3,83
84,"71, Hamilton Road, London, Greater London NW11 9EH",Flat,0.0,https://www.rightmove.co.uk/house-prices/details/england-125121998-15955765?s=cecec02bce86a21fe6612d2a70f72836d222fda4897df894a123fed91f2d7611,51.57318,-0.21123,a5e78626-b83d-45fc-841f-113403542325,84
85,"20, Hill Rise, London, Greater London NW11 6NA",Semi-Detached,,https://www.rightmove.co.uk/house-prices/details/england-15041716?s=1e1f20b24c9be4e3ebb8bb4c5b549e5561f55a46336529b195d9bb27b9251fed,51.58704,-0.18268,8405fd1b-c055-47b3-bb8f-c9f1b0a70099,85
86,"18, Ashbourne Avenue, London, Greater London NW11 0DR",Semi-Detached,5.0,https://www.rightmove.co.uk/house-prices/details/england-115042577-93057822?s=b8c153ae5f3dbad9e33954152b15837c10ab413807e0228efeea4ff287680671,51.58553,-0.20137,973b2d24-e43c-4a3b-911b-2ea1c6dd3664,86
87,"25, Hill Rise, London, Greater London NW11 6LY",Semi-Detached,,https://www.rightmove.co.uk/house-prices/details/england-15955687?s=8f7424d4c7a02abf7347f99fdb3ea92880eef0757f9390e234f48e57f9fd0f1e,51.58731,-0.18311,227a378c-9417-4808-bba9-b3556964c338,87
88,"Flat 2, 39, Woodstock Road, London, Greater London NW11 8ES",Flat,,https://www.rightmove.co.uk/house-prices/details/england-93057876?s=8c11c0c071caddf52a5d74624375c650fea4f9c7474acb1abe20ada7ad2c6f62,51.57165,-0.19946,e4a69a51-ecdb-4ed4-8abc-29671607a924,88
89,"19, Russell Gardens, London, Greater London NW11 9NJ",Semi-Detached,,https://www.rightmove.co.uk/house-prices/details/england-93057894?s=b742278a642f4760103e9bf50d59c365923ad4bcc4ba5848b4e59352d98d608e,51.57849,-0.20612,e0b133d6-bb15-4178-a6d6-d078b041307f,89
90,"Flat 26, Eagle Lodge, Golders Green Road, London, Greater London NW11 8BD",Flat,2.0,https://www.rightmove.co.uk/house-prices/details/england-121624478-15041755?s=f1ca79875e7d9d36c874eaf4796e2819717c56e6d6a1ce5d4809339cb280ee1a,51.57584,-0.20305,aff90fb7-5fce-4936-ad1e-e8de009d0b91,90
91,"17, Gloucester Gardens, London, Greater London NW11 9AB",Detached,,https://www.rightmove.co.uk/house-prices/details/england-93057885?s=75bc8df4f19ed5e21fb862250422aa3dbe78209a8cef43948c3f7cc25b33d16c,51.57646,-0.20273,40a17ffc-0a15-469a-9c6a-e998895ac0d1,91
92,"24, Asmuns Hill, London, Greater London NW11 6ET",Semi-Detached,4.0,https://www.rightmove.co.uk/house-prices/details/england-107110274-15041707?s=be85e095bbf537a8503be5fb8b37ea7f7f2fb76f328b499fc4d1d24c47144fe5,51.58374,-0.19624,31a2c73b-b1b3-43a2-a8a7-cccb04846925,92
93,"81, Brookland Rise, London, Greater London NW11 6DT",Semi-Detached,3.0,https://www.rightmove.co.uk/house-prices/details/england-118291448-16267291?s=6ef9d87725b54d21d6a598d38109250e65c6457d42e90ac82b71afe9cac6fd16,51.58948,-0.18937,3f6d2da7-68df-4e30-bbe3-8001181a3dfa,93
94,"15, Middleway, London, Greater London NW11 6SN",Semi-Detached,,https://www.rightmove.co.uk/house-prices/details/england-15041719?s=412a2abf17677363c2af7ea12d2e2e4c3bad57bbd96005ec01f222ca8e785f7f,51.58233,-0.18634,349a4d7c-b060-4d54-a4bc-883f32772292,94
95,"251, Falloden Way, London, Greater London NW11 6LU",Terraced,,https://www.rightmove.co.uk/house-prices/details/england-93057840?s=1aa33a5d2021b0725f20ade0905d2a70aa6a00fbeb5d425be7a71e262ceded7d,51.58616,-0.18445,7400f5b6-8a0c-441c-9ed6-7d24f605f748,95
96,"14, Alberon Gardens, London, Greater London NW11 0AG",Semi-Detached,4.0,https://www.rightmove.co.uk/house-prices/details/england-122757926-15343609?s=91dfbd8234eaec9f253c4ac400bc2cc673644268a78d44cf86679e64ee0a9bd7,51.58687,-0.20088,18d4b0bb-0b4e-4671-a228-6ed81bb06515,96
97,"Flat 1, Windsor Court, Golders Green Road, London, Greater London NW11 9PP",Flat,,https://www.rightmove.co.uk/house-prices/details/england-16573309?s=8c355365dca3acb088ab5725dd8e20ff7c672a64af3e116b21a1bb6a35ffdb8b,51.57871,-0.20856,0dc810ad-47f7-42e7-a039-8318e95b0686,97
98,"11, Oakwood Road, London, Greater London NW11 6QU",Semi-Detached,3.0,https://www.rightmove.co.uk/house-prices/details/england-65345027-93057843?s=288978d892332095edbe2a220d4e3eb367e853d0705692f2e84a28bd05c7f4a1,51.58581,-0.19038,9d37dbd5-aa77-469d-9326-6efbb88caf35,98
99,"16, Westholm, London, Greater London NW11 6LH",Semi-Detached,2.0,https://www.rightmove.co.uk/house-prices/details/england-110728148-18095389?s=931bf2c77a9d2b4368c6c3c3bfc7508f0d08ed50be1245af4b7d4713e0c1769f,51.58731,-0.18845,1c2634a2-4576-459f-a990-88271fc1c88a,99
100,"6, Southway, London, Greater London NW11 6RU",Semi-Detached,6.0,https://www.rightmove.co.uk/house-prices/details/england-48316667-15644854?s=998a7a85cead6d4a84e24ba9bf99e2e2fa462fb69ba2ee560831b4324bb75f1f,51.58108,-0.18682,464ac19f-e44c-4f21-bd31-99a989aec526,100
101,"49, Woodstock Avenue, London, Greater London NW11 9RG",Semi-Detached,4.0,https://www.rightmove.co.uk/house-prices/details/england-104607317-16267381?s=5bb230f11cf243a75267fa0859bf9fd00273eae13ee4bf69817f4c78b33616c4,51.57444,-0.2057,323f82b2-3d05-4079-9989-941910b06cb6,101
102,"30, Eastholm, London, Greater London NW11 6LR",Terraced,4.0,https://www.rightmove.co.uk/house-prices/details/england-21090893-15041713?s=7c278a2704c88e6ce8ee2c3637e4b9b8103efb7fc7773acd744dd02cd74fa275,51.58709,-0.18586,8adfac07-fc7d-4c11-a591-c5263edd3b1f,102
103,"92, Willifield Way, London, Greater London NW11 6YJ",Terraced,3.0,https://www.rightmove.co.uk/house-prices/details/england-118688795-93057852?s=c00459feada957e917e52ebf1c3a8ced24f2e57312da6d471fa169e5f3178ace,51.58325,-0.19381,28fc3f8d-4a9b-454b-be18-fb7006af8916,103
104,"20, Hurstwood Road, London, Greater London NW11 0AT",Terraced,2.0,https://www.rightmove.co.uk/house-prices/details/england-80573978-93057819?s=1b44c463d41d20c7d609c59cebee8176d0be5e6185872d63b5d97fa02b1c2d06,51.58832,-0.20198,466a242f-c6e9-4e9d-8f3a-91df8fe047b4,104
105,"7, Ravenscroft Avenue, London, Greater London NW11 0SA",Semi-Detached,1.0,https://www.rightmove.co.uk/house-prices/details/england-52480098-15041683?s=75f3f3d4f50a1a40346318a9df59f2629c3d9dfc6b8f4c740b1fe66b04d0704f,51.5765,-0.19941,2c71df2b-d7a6-4aab-80c2-cd53c1cf4d91,105
106,"32, Connaught Drive, London, Greater London NW11 6BJ",Detached,4.0,https://www.rightmove.co.uk/house-prices/details/england-46147388-15041695?s=b74c99cdc6530546c83a30c84b6b117af25764101a1bcae5941b1c6bc3429369,51.58888,-0.19127,2433f5a1-1601-45e1-a6ef-a104efe32630,106
107,"35, St Georges Road, London, Greater London NW11 0LU",Flat,3.0,https://www.rightmove.co.uk/house-prices/details/england-113744525-15041674?s=8ec209917cb51bd1e049cc47c448a1d299630ba728d1643061693fb1a39738d2,51.57969,-0.20174,8aca918d-83ca-43af-96ca-15b3af04f1ed,107
108,"17, Midholm Close, London, Greater London NW11 6EB",Flat,1.0,https://www.rightmove.co.uk/house-prices/details/england-133604987-15644845?s=81ef48f5cb3410876099b6ea247c12f1b21c196c4db8db4d099bba4ae154ba31,51.5888,-0.18637,cc743ff0-bc26-47f5-90ce-be9f235ba955,108
109,"38, Clifton Gardens, London, Greater London NW11 7EL",Semi-Detached,5.0,https://www.rightmove.co.uk/house-prices/details/england-111569729-17473768?s=67855e816407cf77e3e9f48d366118e97b90b9f672fbe5fc38a11b6a3d399898,51.58007,-0.19725,b97f3fb8-9059-4319-8c64-77b18794ed2b,109
110,"13, Brookland Hill, London, Greater London NW11 6DU",Semi-Detached,3.0,https://www.rightmove.co.uk/house-prices/details/england-65344901-15041701?s=f98338f23efd22550f52a41281cf8f377c26652a9681b841c5910c5f87fb1726,51.58839,-0.18898,80bb6f94-011e-41a7-95c5-3bfcc438853c,110
111,"12, St Johns Road, London, Greater London NW11 0PG",Semi-Detached,5.0,https://www.rightmove.co.uk/house-prices/details/england-112983275-15041680?s=3dec578f416313030715e0b07ac85587d03994d9d4376e3a94f8d6e33aa00a9b,51.5775,-0.20009,b988e842-a89d-4640-9de8-4626727afe5b,111
112,"10, The Vale, London, Greater London NW11 8SG",Semi-Detached,6.0,https://www.rightmove.co.uk/house-prices/details/england-39203628-15041770?s=78d1d88c81a20aa8aa132ec0af726dd702c1e9f4e7059823774c73347279657f,51.56925,-0.20114,18eeca1d-5692-4d0e-aa29-5399d38ca85e,112
113,"72, Cranbourne Gardens, London, Greater London NW11 0JD",Semi-Detached,5.0,https://www.rightmove.co.uk/house-prices/details/england-118955948-93057825?s=241d17071ebef34d8821f99b6488108060d308d42cdefc7729e74e61158d1f8e,51.58396,-0.20475,2b6df1db-6205-4ccb-9199-4723d8b4721f,113
114,"Flat 23, Belmont Court, Finchley Road, London, Greater London NW11 6XS",Flat,2.0,https://www.rightmove.co.uk/house-prices/details/england-46832237-16573258?s=83c624fc64af633e6d6548000478daa53ebec10e97c4b15880c0f466d1b5dee1,51.58397,-0.19955,4834076a-23ea-4229-bcea-292bceb2e1f0,114
115,"2, Asmuns Hill, London, Greater London NW11 6ET",Semi-Detached,3.0,https://www.rightmove.co.uk/house-prices/details/england-86646559-15041704?s=06335e13d0441030db5357e23d9cc5b1fbad1ba0e8ac25e8188b621835df80b0,51.58374,-0.19624,d8d62baa-d242-4487-bce9-fdea0cb22f45,115
116,"Flat 7, 452, Finchley Road, London, Greater London NW11 8DG",Flat,,https://www.rightmove.co.uk/house-prices/details/england-15644881?s=6fb6040f382a54420038ec303cd334422bf793853e549edb0047f09fd824df25,51.56298,-0.19692,6ef9515c-8674-41b0-9545-88e6aafc88a3,116
117,"11, Westholm, London, Greater London NW11 6LH",Semi-Detached,3.0,https://www.rightmove.co.uk/house-prices/details/england-65345066-15041710?s=f5d3bbf0478fde9fdcb7119515e02fe4f123c8273a36a955882cd06a921203a7,51.58731,-0.18845,1fb95648-34a9-41dc-87a4-a5a9e615d487,117
118,"4, Connaught Drive, London, Greater London NW11 6BJ",Detached,5.0,https://www.rightmove.co.uk/house-prices/details/england-108913739-15041692?s=ad0bc8c9517d5e6be01655acfab365246e0f560858c2c6545c4a985f842d1706,51.58888,-0.19127,8a50c933-2c93-4669-8881-3115738895a3,118
119,"1, Hill Top, London, Greater London NW11 6EH",Detached,,https://www.rightmove.co.uk/house-prices/details/england-16842451?s=8c5ab741fdadbc1f7921b800167805100e1f67ff784bfc23a4a120960bfbe18e,51.58765,-0.18179,fb18be74-00e9-4b4f-b288-f3c79d1998d3,119
120,"Flat 43, Meadway Court, Meadway, London, Greater London NW11 6PN",Flat,1.0,https://www.rightmove.co.uk/house-prices/details/england-130909907-93370938?s=84c7f6bf8db87240d88d4ce328da495a0ba021980e00208c6491ca81575363e3,51.58034,-0.18555,11fc471c-5430-4eda-90af-b123315dd456,120
121,"39, Rotherwick Road, London, Greater London NW11 7DD",Semi-Detached,,https://www.rightmove.co.uk/house-prices/details/england-15955711?s=6b0ea8a9ffa7ba717e90ff16b03260eaa1055cc88c32f4f5533d2939344fbd0f,51.57469,-0.1927,673cba43-2dd5-49d3-966c-2053acf885d3,121
122,"89, Willifield Way, London, Greater London NW11 6YH",Semi-Detached,2.0,https://www.rightmove.co.uk/house-prices/details/england-117551672-93370947?s=6e0dfeef9812da5738b950804c4dedca3dcf9cb1b8bfbcb950cc46ff1b8fdce2,51.58399,-0.19522,2d9bf970-1dff-4652-9f8f-d57920927250,122
123,"Flat 26, The Pantiles, Finchley Road, London, Greater London NW11 6XX",Flat,,https://www.rightmove.co.uk/house-prices/details/england-17138665?s=36956b73630fd16b8acf2cb2aee51f397be157eb4a7cb85445777223ce489e9f,51.58577,-0.19948,02b0657e-8c10-4266-bad0-ec01c2b2e728,123
124,"39, Dunstan Road, London, Greater London NW11 8AG",Semi-Detached,5.0,https://www.rightmove.co.uk/house-prices/details/england-111410273-15041752?s=4b95faf579abd27f03f2b6de9621d255229b410ea69d4d5b02b6c82f1c7f74c1,51.56819,-0.197,2f2bdaf8-f953-48fc-9037-cdade8ce9a52,124
