,address,propertyType,bedrooms,detailUrl,location_lat,location_lng,property_id,index
0,"27, Queen Elizabeth Drive, Corringham, Stanford-le-hope, Thurrock SS17 7TH",Terraced,3.0,https://www.rightmove.co.uk/house-prices/details/england-123964325-16897006?s=bb47f12e08343d77e23a9594819210e30fd39e487ce1a6a6c2ee23002850b294,51.52983,0.44625,8242be3d-87ad-45d0-90b6-3b24285be23f,0
1,"34, Giffords Cross Avenue, Corringham, Stanford-le-hope, Thurrock SS17 7NQ",Semi-Detached,2.0,https://www.rightmove.co.uk/house-prices/details/england-127109498-17863336?s=03b90ce86083e6c2465edf1ba0fc157b2443532224c2a0fb03201049da441a21,51.5266,0.45487,cb82831f-da0a-44eb-9272-45d5520bc3a4,1
2,"152, Abbotts Drive, Stanford-le-hope, Thurrock SS17 7BW",Semi-Detached,3.0,https://www.rightmove.co.uk/house-prices/details/england-124672019-16896973?s=06576568bf77cf624b0789ef1484e919f5c23f0d55220357a2a9d0313ecc2ed6,51.52176,0.44106,4e9b84a3-6de2-4232-bf5f-e3fda78725b3,2
3,"2, Branksome Close, Stanford-le-hope, Thurrock SS17 8BA",Detached,4.0,https://www.rightmove.co.uk/house-prices/details/england-78774002-17212483?s=60a922e41a2830ff096228edbe581ac65842394a156db4f68042e755fa56f8eb,51.52491,0.42768,23af21b5-f59b-42d5-96d3-048d0fbe228a,3
4,"51, Central Avenue, Corringham, Stanford-le-hope, Thurrock SS17 7NG",Semi-Detached,3.0,https://www.rightmove.co.uk/house-prices/details/england-122903027-17212471?s=25319bff74566b7ed8f5eb60f49f7186c7e53da66fa6eb2b2f5a7d333a877e87,51.5265,0.45083,82d96835-609f-4024-9b38-410442c01bef,4
5,"14, Park Road, Stanford-le-hope, Thurrock SS17 0LR",Detached,3.0,https://www.rightmove.co.uk/house-prices/details/england-123596309-16896943?s=c68118d08a00829414466ec9b1a3fd8ebdd87b189e17857ed459d81a50839b13,51.51534,0.41679,ef14cacd-f831-4d9b-b6a6-f959fcf5b646,5
6,"2, St Andrews Way, Stanford-le-hope, Thurrock SS17 0FL",Flat,,https://www.rightmove.co.uk/house-prices/details/england-16896835?s=3871323e5295aa2670a2ed371b71988af3bea6c6f4d9983b0f701633aaedd22d,51.50929,0.41777,77897ef3-9704-4297-88ad-4057dd97d24f,6
7,"31, Lulworth Close, Stanford-le-hope, Thurrock SS17 0NN",Semi-Detached,4.0,https://www.rightmove.co.uk/house-prices/details/england-40494624-16896955?s=01a0595c29fc9033c9d79f352e12e19fd1bd926d8501b70fa2d086ce9e059a3f,51.51143,0.41889,4eaacf2a-e2e5-4fa1-979d-91aafa37c2ff,7
8,"34, Lower Crescent, Linford, Stanford-le-hope, Thurrock SS17 0QP",Terraced,3.0,https://www.rightmove.co.uk/house-prices/details/england-125050646-17550625?s=0a54bcad0dcf3a85bdb2613818b9442bca45e38d6b023005bb3a633b60002d5f,51.48839,0.40658,c1a1761c-0f5e-4844-ab00-000e68fc13a2,8
9,"38, Goldsmiths Avenue, Corringham, Stanford-le-hope, Thurrock SS17 7HU",Semi-Detached,3.0,https://www.rightmove.co.uk/house-prices/details/england-124955684-16896979?s=1f9d2c514a6eb53110b3be57b5254c507b8dbea4d20ec169bea2dbb6139b6e7e,51.52283,0.4502,489d9ca5-87f2-4bff-9aac-b4e8d01cb8d2,9
10,"69, Southend Road, Stanford-le-hope, Thurrock SS17 0PQ",Terraced,2.0,https://www.rightmove.co.uk/house-prices/details/england-126032069-17212423?s=9ab4dde9f7f0995d2aaedc9146070a803a442ac9106db3723396d6edb670c8b7,51.51773,0.42715,48f459b1-974e-43be-885a-92ea41735db0,10
11,"193, Limeslade Close, Corringham, Stanford-le-hope, Thurrock SS17 7JY",Terraced,3.0,https://www.rightmove.co.uk/house-prices/details/england-125457596-16896985?s=ae495ec5e0b23f0865a71506064ab0c174fbe3c591d5a766dc152974d826d0b5,51.52887,0.44937,a3d9c6d5-3577-40c4-860e-888701654a74,11
12,"37, Central Avenue, Corringham, Stanford-le-hope, Thurrock SS17 7NG",Detached,5.0,https://www.rightmove.co.uk/house-prices/details/england-125032289-16896994?s=e65d4dd9baab5c14c5dc8e675d2d93b6c2396e428fa9e7892e7edf2af724a4c0,51.5265,0.45083,b76bff73-e51a-4a76-9b15-637aabd2d7dc,12
13,"76, Morley Hill, Stanford-le-hope, Thurrock SS17 8HY",Terraced,3.0,https://www.rightmove.co.uk/house-prices/details/england-125902469-17212507?s=b5283bb582a3ea21b69436e54bcf11a2244376845b42fa4146e05e93578781ea,51.53429,0.44389,cfd621c3-f4ef-4ac6-9376-54035e7a5010,13
14,"10, Byrd Way, Stanford-le-hope, Thurrock SS17 8QY",Terraced,3.0,https://www.rightmove.co.uk/house-prices/details/england-124768607-16897033?s=be9cf9ce83fb2a40f918ac0309a38af04260f3e7b220e37693650e878353930f,51.52273,0.42453,b6ca32d1-4f05-4582-b885-e98991f96eb6,14
15,"7, Brookfield Drive, Stanford-le-hope, Thurrock SS17 0GF",Detached,,https://www.rightmove.co.uk/house-prices/details/england-16896874?s=077d49692c6830fefa70449b76d9dfd4e814356cb45d92f89d87c2a24b55aefd,51.51691,0.41903,418db232-dc8c-440a-9579-547d567d7606,15
16,"7, Webster Road, Stanford-le-hope, Thurrock SS17 0BD",Semi-Detached,4.0,https://www.rightmove.co.uk/house-prices/details/england-125303855-17212399?s=4cb9f7b5009c2e2efd535ebe1751ed2238d5e2f1ddb97529a90522e7192095ee,51.5168,0.43733,f01a831c-264b-4814-8de7-5822199bfe62,16
17,"1, Willow Court, 45, King Street, Stanford-le-hope, Thurrock SS17 0HJ",Flat,,https://www.rightmove.co.uk/house-prices/details/england-16896937?s=66305106dfc79cf10b47eec6b9e1d4da0e82e490b1c1c70460e1b4cd8ee8c17f,51.51631,0.42635,eeae8a58-22f1-4e1f-9aef-bc8acedd7c8f,17
18,"78, Giffords Cross Road, Corringham, Stanford-le-hope, Thurrock SS17 7QQ",Semi-Detached,2.0,https://www.rightmove.co.uk/house-prices/details/england-124117841-17550667?s=526b206cca57f7da962a78f6d123fe05d70180e9573fb4ebe79c9451e846a86e,51.5241,0.45805,a20dac3a-6c7b-460c-8cb7-71cc6d90c3ba,18
19,"25, Markhams, Stanford-le-hope, Thurrock SS17 7EP",Terraced,2.0,https://www.rightmove.co.uk/house-prices/details/england-124271366-17212453?s=d8da0d7389c183cf1ee7e562d9734cbaad5994c83d61b86d8d4b6025dc95fbdb,51.52208,0.44295,11e22c84-4ce5-47aa-a7e0-9596de4759c3,19
20,"1, Giffords Cross Avenue, Corringham, Stanford-le-hope, Thurrock SS17 7NL",Semi-Detached,3.0,https://www.rightmove.co.uk/house-prices/details/england-124488437-17863333?s=b833d45a128e635fe7a8d2c3433ca8985b16571a6c287fbcd3b9c719be6d8da7,51.52752,0.45348,3ce0dc78-1281-4ceb-ab01-b055126c5426,20
21,"23, Victoria Road, Stanford-le-hope, Thurrock SS17 0JD",Terraced,3.0,https://www.rightmove.co.uk/house-prices/details/england-55541472-17863267?s=71e915deefa10841dd451ba4260a84836e8a5d0c10b79305fb306db62c71a1a8,51.51572,0.42416,ff8ed8be-603a-4c64-98e9-5422721c8a17,21
22,"60, Abbotts Drive, Stanford-le-hope, Thurrock SS17 7BS",Terraced,3.0,https://www.rightmove.co.uk/house-prices/details/england-85368765-17863306?s=14cf40175fe96489096b93a82523d43cd3a335e12b18e9ba2a4e097109a984ed,51.52053,0.43523,248d90ac-d71e-481f-9115-7b44f00fc730,22
23,"11, Failand Mews, Stanford-le-hope, Thurrock SS17 8BS",Terraced,3.0,https://www.rightmove.co.uk/house-prices/details/england-85470288-16897009?s=24387336a45c1f9e5d948e065bbb9a9d4c22825071631c06ad0bfdc5a92ae715,51.52815,0.43203,aece636e-da73-4dca-acaa-b6ad095b0e1d,23
24,"23, Berwood Road, Corringham, Stanford-le-hope, Thurrock SS17 7QX",Terraced,4.0,https://www.rightmove.co.uk/house-prices/details/england-124927145-17212477?s=0f088d62eed974ae55848a8b13e5962209711aeeb4cf89eb51866fe50f100253,51.52393,0.44882,a068dafb-df7b-49d7-9772-8c8059a94570,24
25,"3, The Grove, Stanford-le-hope, Thurrock SS17 0EB",Flat,,https://www.rightmove.co.uk/house-prices/details/england-17212405?s=fef41ec37efb7f08bd2d90b0cea4572ddda9059f27c2fbc7fd24399bf65b6b2f,51.51122,0.42868,07c591a4-429d-4c0f-b6dd-049b87984144,25
26,"95, Wharf Road, Stanford-le-hope, Thurrock SS17 0EE",Detached,2.0,https://www.rightmove.co.uk/house-prices/details/england-122104853-16896832?s=fc1dd91e7004536b6786536cf883a870fced6fa2f52bd5cc6c29e14c669b7711,51.51081,0.43125,d2e684b9-c96a-4937-be27-b6aa18da90a5,26
27,"60, Colville Close, Corringham, Stanford-le-hope, Thurrock SS17 7RS",Semi-Detached,3.0,https://www.rightmove.co.uk/house-prices/details/england-85547628-16897003?s=a3d1bbdde5c27c7ebccd2ca6e16a3f1995fb37b786cfed12c45bcf48dcb30ca2,51.53167,0.44865,434b9b84-0c1b-4284-ba84-8e293b7787a2,27
28,"5, Alderman Walk, Stanford-le-hope, Thurrock SS17 8DA",Semi-Detached,3.0,https://www.rightmove.co.uk/house-prices/details/england-125029373-16897012?s=c5212580bbe3fa6055e56e4cb05c85d8a3b4c1aff05f70463d2dac5b149934bb,51.53024,0.43546,ada2029f-6f30-475c-9bc4-5054453d55bd,28
29,"249, Corringham Road, Stanford-le-hope, Thurrock SS17 7HQ",Terraced,3.0,https://www.rightmove.co.uk/house-prices/details/england-124923980-17550652?s=c5626b2d2f569215265462bdeadb4aaf175879ac1ce190021efce3c8c34f906c,51.51948,0.4467,ecca8886-9c6e-49a3-823f-3f6c6440e6ec,29
30,"116, Digby Road, Corringham, Stanford-le-hope, Thurrock SS17 9BU",Semi-Detached,,https://www.rightmove.co.uk/house-prices/details/england-17550712?s=9ef694f5e0a7f1b4d47fd531198c2ffe33477cf06bae82d053583416bf2fcf8f,51.53009,0.46429,44256315-c697-4dab-b65b-bc810b2b3f1e,30
31,"45, The Sorrells, Stanford-le-hope, Thurrock SS17 7DZ",Semi-Detached,3.0,https://www.rightmove.co.uk/house-prices/details/england-85541382-17550643?s=595830e0a973d397a6e3dc7b0546739ede64ed826405e3589f99a6af1ac099af,51.52,0.44356,0b90573a-16be-4be5-b8ec-dcd9de0e68ae,31
32,"14, Churchill Crescent, Stanford-le-hope, Thurrock SS17 8EN",Terraced,3.0,https://www.rightmove.co.uk/house-prices/details/england-123109346-17863372?s=e0ec7d1a6d458955152330dae4343fd5f69e0e423736b0bd3331c29d4ec83194,51.52778,0.43677,174e7e92-caab-4ceb-a04f-6849827c44a5,32
33,"39, Howell Road, Corringham, Stanford-le-hope, Thurrock SS17 8JL",Terraced,4.0,https://www.rightmove.co.uk/house-prices/details/england-123922973-17212516?s=ae8e7ddcecf0be3ac1f4c32a6e0d724a7ef0215f976c99b6f996e65a911a2925,51.53344,0.44601,d39c04ea-5767-4af8-af0d-eb9d011e7705,33
34,"257a, Branksome Avenue, Stanford-le-hope, Thurrock SS17 8DQ",Detached,3.0,https://www.rightmove.co.uk/house-prices/details/england-124486451-17212492?s=ba9778c57a407d0f08e1235b5732b0d52926139a6f428f36c46aebd35ff2018d,51.5335,0.44284,f3dc3515-a292-4c31-a86c-301814530bd6,34
35,"35, Southend Road, Stanford-le-hope, Thurrock SS17 0PQ",Semi-Detached,3.0,https://www.rightmove.co.uk/house-prices/details/england-96552544-17212420?s=b23557237c17751aec44c88af8a1c06ee0f65e177c8acb5e7df29d47a08534f2,51.51773,0.42715,9166eef1-ee53-41ad-9a78-1ff148b5c0ee,35
36,"46, Webster Road, Stanford-le-hope, Thurrock SS17 0BE",Semi-Detached,3.0,https://www.rightmove.co.uk/house-prices/details/england-85678602-17212402?s=5414aad5f9848893a9cec34498c98614915816ec56b457ecf2958d54a5e418d5,51.51758,0.43853,6d21ea3e-4f76-4389-b291-684670dcd41d,36
37,"33, Ashway, Corringham, Stanford-le-hope, Thurrock SS17 9EB",Semi-Detached,3.0,https://www.rightmove.co.uk/house-prices/details/england-121494167-16642240?s=bc1d49cfca79989caf6ac3c2b8de2ee8fc7b2098f42f800196c5912fc4cbdefb,51.53241,0.46066,a13e1e8e-5188-47f1-bf7e-8608cddc6c4a,37
38,"12, Maples, Stanford-le-hope, Thurrock SS17 7BY",Terraced,3.0,https://www.rightmove.co.uk/house-prices/details/england-124417301-17212441?s=a64f8493e0f826770fa39928ebd993b17b6f860529ee799fda98fd139d136d35,51.51924,0.4366,b34a1acd-b8e9-485c-8268-5e22052c00cf,38
39,"23, Allensway, Stanford-le-hope, Thurrock SS17 7HA",Semi-Detached,2.0,https://www.rightmove.co.uk/house-prices/details/england-120674492-16642147?s=5a21e108e07dbab55c6a594b7528eccbb6f89d9de9f979172512680acd919d11,51.52229,0.44584,a334c291-f53f-4a53-ab31-091f93edacc0,39
40,"104, Monks Haven, Stanford-le-hope, Thurrock SS17 7EB",Semi-Detached,2.0,https://www.rightmove.co.uk/house-prices/details/england-122415173-17550646?s=d2ca0eca61bfa9f322c0af88eee159837f18b1403ee209a3cd47f64751a5f633,51.51993,0.4424,cb6177a6-1d71-48d2-b331-e2829bcd5187,40
41,"Greenacre, High Road, Fobbing, Stanford-le-hope, Thurrock SS17 9HN",Detached,,https://www.rightmove.co.uk/house-prices/details/england-16642246?s=1c3d1710d1f2c6fb0a5712afbad607e59d554dcb970a7a45d1eb23d7650ef431,51.54088,0.46862,79f091ca-3cfd-420a-b540-6c7040a42be6,41
42,"47, Scratton Road, Stanford-le-hope, Thurrock SS17 0PA",Detached,4.0,https://www.rightmove.co.uk/house-prices/details/england-125287712-17212417?s=7315a3882663c3d0c32cb1736706a86a33bf44f038d6a7e3b922db822c963f36,51.51661,0.42911,be0508df-2507-41c0-ba30-f1a228826183,42
43,"9, Warburtons, Stanford-le-hope, Thurrock SS17 7HR",Semi-Detached,3.0,https://www.rightmove.co.uk/house-prices/details/england-124566692-16642153?s=f08194c16d4f279517b2123a50f5247f717835741f2daf01e59b387448b5da86,51.52131,0.4494,dc3125ab-d7d6-4189-8228-443d6c255edf,43
44,"24, Valmar Avenue, Stanford-le-hope, Thurrock SS17 0NF",Semi-Detached,3.0,https://www.rightmove.co.uk/house-prices/details/england-33092075-17550616?s=14191c66eefdd186b2e1bd1f5af486ef0cd4328b37d920e7d385e391dfc9f171,51.51279,0.41795,48c81717-a5dd-45bb-8afd-e36271aa32a2,44
45,"5, Adams Road, Stanford-le-hope, Thurrock SS17 0AY",Semi-Detached,3.0,https://www.rightmove.co.uk/house-prices/details/england-97519016-16642099?s=1875a6af14790937bd528b313ca98cbb332d949ad3f384ec9bd0f203d11dfe6d,51.51551,0.43871,934ba277-abfa-41f7-b377-6d1c39753e86,45
46,"16, Ashway, Corringham, Stanford-le-hope, Thurrock SS17 9EB",Semi-Detached,2.0,https://www.rightmove.co.uk/house-prices/details/england-123235025-18162526?s=e6c106d8f8dd13cdb90ae78be4f34714435e244aeb468890efba7afe483b200a,51.53241,0.46066,adc923a7-d4b8-4182-bef9-c42002f77d18,46
47,"117, Thors Oak, Stanford-le-hope, Thurrock SS17 7BZ",Terraced,,https://www.rightmove.co.uk/house-prices/details/england-16642141?s=633c710bb98612445e6fa12ff41aa06f0c3f8d43ed95de935c281cd6cf408f8f,51.52013,0.43708,5c17fd99-1d3d-4f4b-8e48-de4d2466ce36,47
48,"21, Bramleys, Stanford-le-hope, Thurrock SS17 8AG",Semi-Detached,3.0,https://www.rightmove.co.uk/house-prices/details/england-122655974-16642180?s=2120aca4e38af50945e764ebf157e5f238092b0a94a776cadf438621fbfe43bc,51.52431,0.43067,6fc5bccb-96de-4741-946d-d7d37d897977,48
49,"172, Limeslade Close, Corringham, Stanford-le-hope, Thurrock SS17 7JY",Terraced,4.0,https://www.rightmove.co.uk/house-prices/details/england-122878502-17863327?s=1ace44102b8f1816d240e3b602b37a26ac37ede72ad331211b2629e814f695a3,51.52887,0.44937,3f82ce37-3292-433e-8009-fd6ba84c3e9f,49
50,"6, Brookfield Drive, Stanford-le-hope, Thurrock SS17 0GH",Terraced,,https://www.rightmove.co.uk/house-prices/details/england-16896931?s=3ae5adff53ce6158eda3466551996f2a8956c3d01dd3be88c38da8eff905bdf5,51.51636,0.41944,a132a234-7174-4e4c-9fd4-3ad5b8fc3c80,50
51,"Crannley, Balmoral Avenue, Stanford-le-hope, Thurrock SS17 7BD",Detached,3.0,https://www.rightmove.co.uk/house-prices/details/england-122607791-17212435?s=817ea2df8e80a80ab9d07edb12e8d21e07524c6961128fb2c7bae2b8247b65ab,51.52398,0.43786,43b469e0-4823-475e-882d-b4cc0f538f60,51
52,"1, Boyce Road, Stanford-le-hope, Thurrock SS17 8QN",Semi-Detached,3.0,https://www.rightmove.co.uk/house-prices/details/england-122031035-16642219?s=d510c304b1a99a96cd7a8de04bd038434eb779f1d8b96999cf0449cac98a069d,51.52131,0.42806,5a8b5f08-f60c-432a-83d5-e6a06c46b6c4,52
53,"6, Vincent Close, Corringham, Stanford-le-hope, Thurrock SS17 7QL",Semi-Detached,2.0,https://www.rightmove.co.uk/house-prices/details/england-124362758-17550664?s=756f0d554cb772b12d5f7f6f49ea1bf94ea3ecb6e119c01c27de1d7ce180fb34,51.52363,0.45889,8bff69b1-e65d-492f-b712-72640ad8e48d,53
54,"20, Rayleigh Road, Stanford-le-hope, Thurrock SS17 0NE",Semi-Detached,5.0,https://www.rightmove.co.uk/house-prices/details/england-121073525-16896949?s=75d5ed49c7fe39c510239bd7b5b7875308d91e4aaff9ef379fd8b07f4bc7ca84,51.51294,0.4194,f8ca424a-2c90-4e4c-a539-e6d6ff5e396a,54
55,"42, Balstonia Drive, Stanford-le-hope, Thurrock SS17 8HT",Detached,4.0,https://www.rightmove.co.uk/house-prices/details/england-9476379-17212504?s=770f9034e54f69a41654bff3c3feaf3137c96ca227cfbc8d650996586adba82c,51.53171,0.4426,a2a58bcd-7c57-4beb-89ed-70edc6f75c47,55
56,"4, Levett Road, Stanford-le-hope, Thurrock SS17 0BB",Semi-Detached,3.0,https://www.rightmove.co.uk/house-prices/details/england-53281709-16896829?s=36658c59cccd572cbe196464393f110c01c0948be0a36b9478e4eb4f67b0a8bc,51.51678,0.4382,2d0716e7-bf51-4e17-b9bc-87643fbebfec,56
57,"Homelea, Horndon Road, Horndon On The Hill, Stanford-le-hope, Thurrock SS17 8PD",Semi-Detached,4.0,https://www.rightmove.co.uk/house-prices/details/england-123013766-17212525?s=901c247318ca0df76c3d3b123f9b1cfc9ce8613fbebf12d08492c462f08bcce8,51.51474,0.4107,32a8d5f2-5dbf-4738-a38c-886301feb083,57
58,"33, Gordon Road, Horndon On The Hill, Stanford-le-hope, Thurrock SS17 8NP",Semi-Detached,4.0,https://www.rightmove.co.uk/house-prices/details/england-102623417-16642210?s=f61cb51b6b32d3f4f097ff0253b1868110b9acd5e672542d3cc155f300d87379,51.52394,0.40052,7ef6fadc-f457-4107-854e-aa9dd970745d,58
59,"19, Hearsall Avenue, Stanford-le-hope, Thurrock SS17 7EH",Semi-Detached,3.0,https://www.rightmove.co.uk/house-prices/details/england-85340547-17212450?s=16a6a520ac7f6da9fbcaf5ae39e9debe2e924ba0f867e18c9920d6eabe3396df,51.52023,0.44098,d569e795-692a-4491-89fe-05750f58c52b,59
60,"33, Elmstead Close, Corringham, Stanford-le-hope, Thurrock SS17 9EL",Semi-Detached,2.0,https://www.rightmove.co.uk/house-prices/details/england-118054283-16642243?s=238c46d4640a4e9e53a5df94f8a5f83bed12e1f6a1cd558b856077399849a3b4,51.52976,0.45821,7cda5aa5-1f11-4cb9-a290-9e56a8e0b84c,60
61,"6, The Mount, Stanford-le-hope, Thurrock SS17 7HD",Semi-Detached,4.0,https://www.rightmove.co.uk/house-prices/details/england-123247643-17212456?s=f1edbf0287d61c919923aeceb569e3e1ff0ccb21de8aa211f214b680ac5b13ed,51.52057,0.44604,296a4bd2-8077-4277-86db-156cc63b9e31,61
62,"11, Regan Close, Stanford-le-hope, Thurrock SS17 8BU",Terraced,3.0,https://www.rightmove.co.uk/house-prices/details/england-122102567-17212486?s=69199447e9d91c42a35d316d4da35f9e0be59c9f2d908a71d69be0ff45c12293,51.52847,0.4381,2835519e-f8c4-4599-90d9-18d6c16fb274,62
63,"4a, Stenning Avenue, Linford, Stanford-le-hope, Thurrock SS17 0RP",Flat,2.0,https://www.rightmove.co.uk/house-prices/details/england-46803208-17212429?s=939a01420b6fb5d4155dcf67504926a8515bf414a4e7462593cd612cfb0cd307,51.48397,0.41153,2876385e-9184-40ba-8b9d-c725bcf82e69,63
64,"Mira Cielo, Milton Road, Corringham, Stanford-le-hope, Thurrock SS17 8JP",Semi-Detached,3.0,https://www.rightmove.co.uk/house-prices/details/england-112850663-17212519?s=460df2781f00231f34afe7e8b91295e95ebc81d36368d22466cf2b9ed69d98e8,51.53386,0.44704,1a823a9d-184c-4967-a467-62d9c5cd8c1c,64
65,"18, Woolifers Avenue, Corringham, Stanford-le-hope, Thurrock SS17 9AU",Semi-Detached,2.0,https://www.rightmove.co.uk/house-prices/details/england-124276328-17212540?s=e23c7eccbc44248e684a404b7404504a95dd860269029a9112a4dac7f9f634d9,51.52729,0.46024,2be2daff-58db-4416-9d3b-d1c26d60c9c8,65
66,"Flat 31, Conrad Court, Butts Road, Stanford-le-hope, Thurrock SS17 0JR",Flat,1.0,https://www.rightmove.co.uk/house-prices/details/england-80408424-16642117?s=57fb27e7ec20e30c0e7f43f2640c95369293209c8e4cb905147e3fc55a0ef339,51.51477,0.42224,b20625ae-ff61-48db-bfa3-811f4b83e229,66
67,"18, Bell Reeves Close, Stanford-le-hope, Thurrock SS17 0GX",Flat,2.0,https://www.rightmove.co.uk/house-prices/details/england-27154424-16642114?s=cce077421a9647721c4f2133c4e959f1827351473bb449b727418a0c621372cb,51.51672,0.42378,0085852d-25a1-46b6-8f48-260b7e584f9d,67
68,"84, Larkswood Road, Corringham, Stanford-le-hope, Thurrock SS17 9DD",Terraced,3.0,https://www.rightmove.co.uk/house-prices/details/england-127405409-16642231?s=3ef3a2bb080ba94da856db2736398c3cbc3b17a7404c594b200f8fba18ed8db9,51.5267,0.46295,208a10e5-4004-417c-9d90-b2e8b25d3ab5,68
69,"Flat 7, Chale Court, St Margarets Avenue, Stanford-le-hope, Thurrock SS17 0EW",Flat,1.0,https://www.rightmove.co.uk/house-prices/details/england-130861013-16642102?s=bad206f78f02ea50cf02049dc2b4a60f692522bcb25665f3a39b5ab74abf68f3,51.50879,0.42466,f7dbccd5-47ee-4dc2-96c7-cc9dd01aa51a,69
70,"18, Beechcroft Avenue, Linford, Stanford-le-hope, Thurrock SS17 0RE",Semi-Detached,3.0,https://www.rightmove.co.uk/house-prices/details/england-124171706-16336300?s=1dd7c06e860239e1d13129f29e031316fac5f44298b3ae5435013a0ab22c7cb7,51.48383,0.40936,94de23ff-d9d4-4a4b-b2db-a1d8b2702435,70
71,"42, Anthony Drive, Stanford-le-hope, Thurrock SS17 8BW",Semi-Detached,3.0,https://www.rightmove.co.uk/house-prices/details/england-96648508-16642192?s=0bc6331e4c3dce10e173048b9827a750799247c251bf3096fa24b6a7c2052791,51.52841,0.4368,09957e5d-0f49-446d-89d9-7203f3f192fd,71
72,"13, South Hill Crescent, Horndon On The Hill, Stanford-le-hope, Thurrock SS17 8PH",Semi-Detached,3.0,https://www.rightmove.co.uk/house-prices/details/england-124474973-16642213?s=c867af1d99d7abaec5658750f8d475ba5a1995427debbf0f30c7bd0b4ebc2fc0,51.52155,0.40746,50313da8-8ecb-4d16-9e1a-d41eed570c80,72
73,"18, Edith Way, Corringham, Stanford-le-hope, Thurrock SS17 9AF",Semi-Detached,2.0,https://www.rightmove.co.uk/house-prices/details/england-100663697-16642225?s=fe6417baab13fc4fb1ebb5bd6fd4ee6abdd7f1e2c03d5debe26fb6db7f8e9409,51.53204,0.45689,561cf053-6683-45ed-8b57-21c29add8947,73
74,"19, Old Jenkins Close, Stanford-le-hope, Thurrock SS17 0NB",Semi-Detached,3.0,https://www.rightmove.co.uk/house-prices/details/england-115930145-17212414?s=6330aab0d08581027fe6b536a52dd343fca4f1b0dbd51c1ddba5eac2c392b947,51.51299,0.41695,cc037afe-746b-41da-8fdb-294b18a1564a,74
75,"Flat 12, Partridge Court, Southend Road, Stanford-le-hope, Thurrock SS17 0PL",Flat,2.0,https://www.rightmove.co.uk/house-prices/details/england-123333512-16642123?s=8fe8562a43c882613c424ced1d8895a969225583e736f01c1187c6d6bb7c8dfd,51.51665,0.42724,2f2e3932-5db0-4e3e-8163-666586e1a3d3,75
76,"24, Augusta Road, Stanford-le-hope, Thurrock SS17 0FB",Flat,2.0,https://www.rightmove.co.uk/house-prices/details/england-52913841-16642105?s=759ef848e2bda499c75d70133f6059cec23272ab59e626e44f152695f095f89f,51.51057,0.41654,14e8109e-1caa-43ba-906b-fb53e8e52800,76
77,"16, Conrad Road, Stanford-le-hope, Thurrock SS17 0AT",Semi-Detached,3.0,https://www.rightmove.co.uk/house-prices/details/england-116063438-16642096?s=8a90738938988523467ea2a051bf0ec521c3ea9b2dc213540d4c3e228af51039,51.51582,0.44103,e0de1389-af47-4536-a201-5e19f6c6564f,77
78,"19, Colman Close, Stanford-le-hope, Thurrock SS17 8RT",Flat,2.0,https://www.rightmove.co.uk/house-prices/details/england-123122612-17212537?s=372c6e9d9cd37d18fb73f8a9d29b1de6074b29b41b58ac055fa392a7e083c2ae,51.52181,0.42996,4bec830a-0d19-4c94-b1af-657727bd0690,78
79,"5, Haskins, Stanford-le-hope, Thurrock SS17 7JG",Terraced,3.0,https://www.rightmove.co.uk/house-prices/details/england-122880734-17212459?s=366d1fadd77bc040a535bbbb9d60c1a34204eebd95855beab45be39fbdab6c88,51.52039,0.44632,63e863b8-bbf1-4eef-8fcb-779f3d54abd1,79
80,"69, Rodings Avenue, Stanford-le-hope, Thurrock SS17 8DT",Terraced,,https://www.rightmove.co.uk/house-prices/details/england-17863366?s=ca9e51dbf00f9b723684544e4b0088f93e0f18fdcdfba773234b5ba135b86596,51.52633,0.43294,3b010dd4-185a-411a-9a3a-3ca20cf5dc38,80
81,"34, Fairview Avenue, Stanford-le-hope, Thurrock SS17 0DT",Semi-Detached,3.0,https://www.rightmove.co.uk/house-prices/details/england-121773098-17550568?s=d0a6e438d00e85e5438f577463ad31179c937511d61e325f4fd4a3787ae88bca,51.51161,0.42754,bcb7187a-1a8f-4391-9299-6e04d2f373ea,81
82,"28, Boyce Road, Stanford-le-hope, Thurrock SS17 8RP",Terraced,2.0,https://www.rightmove.co.uk/house-prices/details/england-122098967-16336387?s=da5195e98c5ffc1caa7e2a6b6cb56d7b5d64c01706eea8b19080b0704653ebd5,51.52168,0.42736,58a2cded-5649-4d74-98b3-6e4f6e270852,82
83,"26, Abbotts Drive, Stanford-le-hope, Thurrock SS17 7DG",Semi-Detached,2.0,https://www.rightmove.co.uk/house-prices/details/england-122878244-17212444?s=aa5deb83cfd4b5538a8eb4e9569e34f46e69779a88be53fe76cb824570eaf50f,51.52042,0.43205,e5f3d6bb-f890-4693-9c80-2e1376f4a29a,83
84,"41, Somerset Road, Linford, Stanford-le-hope, Thurrock SS17 0PZ",Semi-Detached,4.0,https://www.rightmove.co.uk/house-prices/details/england-123213380-16642132?s=5f7c5bc054182a0ea20d9f1340b50b7a44b11fecaf766ed30f01cdb2ec3ca418,51.4901,0.40638,b2a926b2-4b39-4f2a-8c5b-a29a06e7b693,84
85,"108, Giffords Cross Road, Corringham, Stanford-le-hope, Thurrock SS17 7QQ",Semi-Detached,2.0,https://www.rightmove.co.uk/house-prices/details/england-120378485-16336345?s=33cd16971c6329b35837816fc1ed115d58bbbe7610fb75fb20abfd7cf3c46266,51.5241,0.45805,bb8dd876-b592-4185-a185-6a9a86babd0f,85
86,"121, Giffords Cross Road, Corringham, Stanford-le-hope, Thurrock SS17 7QG",Semi-Detached,3.0,https://www.rightmove.co.uk/house-prices/details/england-110204786-16896997?s=8ee55c44936e8af23083f4f4343daea92f7d444960bc6bb46e1b2a1965f5c69a,51.52523,0.45999,de34c2e9-f0f0-4d9e-930d-fb0f13734eed,86
87,"77, East Tilbury Road, Linford, Stanford-le-hope, Thurrock SS17 0QF",Semi-Detached,4.0,https://www.rightmove.co.uk/house-prices/details/england-121657619-17212426?s=d22a9bbffe97561832dbf3ba3c1bf2d34a925f75f8bedea3445e64341fedf5b5,51.49124,0.40773,301eae55-60d9-4d1f-8801-9f42785967b6,87
88,"1, Meadow Close, Linford, Stanford-le-hope, Thurrock SS17 0QL",Terraced,3.0,https://www.rightmove.co.uk/house-prices/details/england-119378402-16336297?s=29346767144ae08b9f21f69814661f6ef91adda8381166fc380eedf3c06b0916,51.48769,0.40539,bda28927-672b-4572-812e-9291c7425584,88
89,"16, Gordon Road, Horndon On The Hill, Stanford-le-hope, Thurrock SS17 8NP",Semi-Detached,5.0,https://www.rightmove.co.uk/house-prices/details/england-122761847-16897030?s=a30e0d75207dfb2edabc10ebfb24678988e3d354757b439c15b9d78f03d9e0f1,51.52394,0.40052,7be5b239-a1f5-4d16-98e3-053f39a67291,89
90,"40, Silverdale, Stanford-le-hope, Thurrock SS17 8BE",Semi-Detached,3.0,https://www.rightmove.co.uk/house-prices/details/england-43144636-16642186?s=c96994e2b4061ac453d0591f931c26ff140f1a86bd89e9e77de8cf515e79b207,51.52605,0.42947,a9e23b2b-9444-4055-941f-03e12dfb4e18,90
91,"53, Southend Road, Stanford-le-hope, Thurrock SS17 0PQ",Terraced,2.0,https://www.rightmove.co.uk/house-prices/details/england-122881694-16642126?s=139768b741ecc0637c767ad659983c1c705d54dcc3f1bbe919e06a74bb9c8628,51.51773,0.42715,75d47653-3073-44df-a6cb-00349d31ed46,91
92,"48, Brookfield Drive, Stanford-le-hope, Thurrock SS17 0GH",Semi-Detached,,https://www.rightmove.co.uk/house-prices/details/england-16896928?s=b01fb6e716a1a90179b184f0fadc46dad9d60a88b18925457fd1d543a00924e2,51.51636,0.41944,c9a3e6b4-dc6c-4dd2-9c04-801d7258d5bd,92
93,"116, Milton Road, Corringham, Stanford-le-hope, Thurrock SS17 8JU",Semi-Detached,3.0,https://www.rightmove.co.uk/house-prices/details/england-116536160-16897018?s=9b50e19ba7bce733b6945026b77803a567ae493ba34e0e7583c75fee0a32e5cb,51.53533,0.44568,8172be6d-99ba-4e13-9e3a-a8ec369d8bea,93
94,"66, Rose Valley Crescent, Stanford-le-hope, Thurrock SS17 8EF",Terraced,3.0,https://www.rightmove.co.uk/house-prices/details/england-123833939-17212498?s=016b35da2238b704113b623c924848ff387af47f8d03200963ef39935843fd59,51.52608,0.43624,0457452a-c02a-45d0-ab3d-54074b588b7d,94
95,"50, Cornwell Crescent, Stanford-le-hope, Thurrock SS17 7DL",Terraced,4.0,https://www.rightmove.co.uk/house-prices/details/england-122766452-16336309?s=c386ab7bb4d8aa689bb63ee2bbc4018c27adbc5ad8b0739aaa61582a95768793,51.5221,0.43776,b1438964-55d5-4f46-b254-f06894ca4860,95
96,"29, Bishops Road, Stanford-le-hope, Thurrock SS17 7HB",Semi-Detached,3.0,https://www.rightmove.co.uk/house-prices/details/england-121741181-16642150?s=a5aee5d2194e5d6508b0eca83f0f5ace2eb3027f5234721c35e378de7126d15c,51.52111,0.44607,eb4e5dec-5858-4c2f-b082-062ab7a9a7c4,96
97,"23, Burton Close, Corringham, Stanford-le-hope, Thurrock SS17 7SB",Terraced,3.0,https://www.rightmove.co.uk/house-prices/details/england-29219395-16336351?s=efc484850297c3a9e8fad1e96de8164e516bf6223b7e57b37d0b299cad47b2c4,51.53017,0.44728,57511c79-eb3c-4908-b618-ec68b3c5d1c0,97
98,"50, Williamsons Way, Corringham, Stanford-le-hope, Thurrock SS17 7RT",Terraced,3.0,https://www.rightmove.co.uk/house-prices/details/england-122101553-18162481?s=9a2d0b20a5c67a11e895dacdd7358283db52587030f7248553b832c99352daee,51.53143,0.4472,9e8099c9-6129-4266-8113-1841e3fc169f,98
99,"64, Howell Road, Corringham, Stanford-le-hope, Thurrock SS17 8JH",Terraced,3.0,https://www.rightmove.co.uk/house-prices/details/england-122775569-16336375?s=7f196b6b24f13abe36be28a842f7d0989576de60b7aeb0d46c001451ff4a5dfb,51.53417,0.44533,b3a60b34-7166-4a72-a5e1-602ae293ba8d,99
100,"64, Howell Road, Corringham, Stanford-le-hope, Thurrock SS17 8JH",Terraced,3.0,https://www.rightmove.co.uk/house-prices/details/england-122775569-16336375?s=7f196b6b24f13abe36be28a842f7d0989576de60b7aeb0d46c001451ff4a5dfb,51.53417,0.44533,2b6de26d-9f9c-4480-801c-8c517f42110f,100
101,"White Lodge, Fourth Avenue, Stanford-le-hope, Thurrock SS17 8HN",Detached,3.0,https://www.rightmove.co.uk/house-prices/details/england-96590791-16336372?s=d68964bf8a9976546c82ea881be272260a43db4b4498da21fe51be9b4bfb7ed1,51.53076,0.44068,e7b8fbe0-853b-4b90-a7e1-2808b04e2b73,101
102,"29, Branksome Close, Stanford-le-hope, Thurrock SS17 8BA",Semi-Detached,,https://www.rightmove.co.uk/house-prices/details/england-16336363?s=9f2dc86ea7b1032533ed512746f73dc8a0637d30d8a01cd56a76d33dcec23a6b,51.52491,0.42768,0772ce26-085c-4455-a6cc-5df70d8f7eaf,102
103,"32, Brampton Close, Corringham, Stanford-le-hope, Thurrock SS17 7NR",Terraced,3.0,https://www.rightmove.co.uk/house-prices/details/england-126872939-16336333?s=566466da4ca1c2f3fa1c6c13bd8f341c30bfdc6ce0eb07e15befc392c249a8d7,51.53178,0.45227,d291bc60-77ba-41f5-89c5-6435b10a9acb,103
104,"17, Berwood Road, Corringham, Stanford-le-hope, Thurrock SS17 7QX",Semi-Detached,4.0,https://www.rightmove.co.uk/house-prices/details/england-122829173-16336348?s=2f2125dee17948daa2b19e823adab22404161d790f910b9397306bd7ca6b573f,51.52393,0.44882,1c51fd58-1eff-4a20-899e-f39c0897197a,104
105,"10, Silvertown Avenue, Stanford-le-hope, Thurrock SS17 7BT",Semi-Detached,3.0,https://www.rightmove.co.uk/house-prices/details/england-122094149-16896970?s=26bad7b96e35c8591e41bca2dc248a5338e7d36cff41e79d91264845cdb751f5,51.51921,0.43372,63465b21-bc2b-4c5d-9590-d16fcf226b7c,105
106,"153, Branksome Avenue, Stanford-le-hope, Thurrock SS17 8BY",Semi-Detached,3.0,https://www.rightmove.co.uk/house-prices/details/england-123456251-17212489?s=99a8a1a50dad3e519de2737a23a65314360ada0df69b0e9422c68573e8b34263,51.5295,0.43628,3eb0dc0e-7262-463a-9b04-16eec8aaaf80,106
107,"17, Ashridge Close, Stanford-le-hope, Thurrock SS17 0FP",Semi-Detached,,https://www.rightmove.co.uk/house-prices/details/england-17863261?s=45c37a4e3d8bec937d3cec76439255df6f6622a4db61e43ac1ba905b548a8808,51.50906,0.41602,3c7f3299-fcc1-40a2-866f-6684b9d7cb94,107
108,"21, Old Jenkins Close, Stanford-le-hope, Thurrock SS17 0NB",Semi-Detached,3.0,https://www.rightmove.co.uk/house-prices/details/england-113902730-16896946?s=a235d2fb38d200a7e9c3d534fca83b2956088a428448f95ff3290487748aca95,51.51299,0.41695,d98c6abe-f319-4a8f-8c6d-6687f42f2f38,108
109,"117, Larkswood Road, Corringham, Stanford-le-hope, Thurrock SS17 9DD",Flat,,https://www.rightmove.co.uk/house-prices/details/england-16336396?s=ff1131d18b8049736ef294b79b8bd7bc8c8359b214b30ea97f0ac61acee4f9a0,51.5267,0.46295,f9b19694-8bc3-45fd-bada-d6470504658c,109
110,"24, Rainbow Lane, Stanford-le-hope, Thurrock SS17 0AS",Semi-Detached,4.0,https://www.rightmove.co.uk/house-prices/details/england-118595624-17212396?s=99879e9c5e6cefca1c2313f8f31981e8858bd585f5a120cb5e88685691264fc9,51.51598,0.44205,b8631044-fe6c-42b9-8c15-13b95b9cffe6,110
111,"62, Larkswood Road, Corringham, Stanford-le-hope, Thurrock SS17 9DF",Semi-Detached,3.0,https://www.rightmove.co.uk/house-prices/details/england-121920521-16642234?s=a6bc2db05aafd7d80c29a59c47467bfb2f13f494b10ed4abeb388f306f4b9044,51.52753,0.46184,0cd3697a-4139-455c-ac10-785ffe6f6d4e,111
112,"38a, Corringham Road, Stanford-le-hope, Thurrock SS17 0AH",Terraced,3.0,https://www.rightmove.co.uk/house-prices/details/england-118998317-16642093?s=637c523c416ad4f48a1760d9c072e7c827e8254f1b050e8151abb44b9f67dafc,51.5141,0.42869,fd00ca69-fe02-4e32-a8f3-4ace023fb370,112
113,"Chez Nous, High Road, Fobbing, Stanford-le-hope, Thurrock SS17 9HN",Detached,3.0,https://www.rightmove.co.uk/house-prices/details/england-120659732-16336399?s=d0d1035e3a2a32da61854dc350834471e9244b62acf7d98c112fe313b52c85f7,51.54088,0.46862,2f4bc5e9-bc05-4e60-a556-4f75287c0863,113
114,"2, Halls Row, Horndon On The Hill, Stanford-le-hope, Thurrock SS17 8LG",Terraced,,https://www.rightmove.co.uk/house-prices/details/england-16897024?s=16e295960f6c6f29ab373e78b81d55e1a2ee9d75d774c55152b3ec6ad4d82b97,51.52501,0.40548,38ba19d1-160f-48e7-b1d7-9be546b1eef6,114
115,"82, Larkswood Road, Corringham, Stanford-le-hope, Thurrock SS17 9DD",Semi-Detached,3.0,https://www.rightmove.co.uk/house-prices/details/england-121073027-16642228?s=67be4aeb69890badee2d4434e65d4d15aba4fb2078b4438a1f6ebfd41c113294,51.5267,0.46295,cac65cfb-99ec-47c5-b480-cb4958f64ba3,115
116,"169, Limeslade Close, Corringham, Stanford-le-hope, Thurrock SS17 7JY",Semi-Detached,,https://www.rightmove.co.uk/house-prices/details/england-16336327?s=24bed0caf2af0b0cff4754bcc8ce8e2d4f197f860525186dcde4abb8ba608054,51.52887,0.44937,52974b59-ccc0-4848-9e44-32fd3cfecb31,116
117,"26, Allensway, Stanford-le-hope, Thurrock SS17 7HA",Semi-Detached,3.0,https://www.rightmove.co.uk/house-prices/details/england-85354698-16336315?s=d6abba31adcb10ce5f22ca0b0853abb25f485caf67ed5e2ce21000e1cff72299,51.52229,0.44584,b5a389bc-b35b-43b7-b545-25bf829636aa,117
118,"22, Caldwell Road, Stanford-le-hope, Thurrock SS17 0LP",Terraced,1.0,https://www.rightmove.co.uk/house-prices/details/england-120502409-16642120?s=0a6ad076dabade072cd7e572a7a813777a6b88f53aaf89504128b3e639cb2f07,51.51513,0.41807,5677518c-6c00-4bdb-b994-f7b9fa78db08,118
119,"Flat 1, Rosslyn House, Springhouse Road, Corringham, Stanford-le-hope, Thurrock SS17 7QR",Flat,1.0,https://www.rightmove.co.uk/house-prices/details/england-116815925-16026145?s=6398f7bff899628c93fc91a630eddf71c2b0ea86f95805a89a9333cdf29a6464,51.5228,0.45164,0691e7e5-8d75-480e-be7b-3e549b0f679a,119
120,"91, The Sorrells, Stanford-le-hope, Thurrock SS17 7ER",Terraced,3.0,https://www.rightmove.co.uk/house-prices/details/england-120743378-16026112?s=c591a5b508659c6b9e5ae8c1c5d612c6405c92d4af058e89388c73382a7bd4fd,51.52196,0.44424,05a715b8-42f7-4228-a80e-b9d012dbe343,120
121,"85, Andersons, Stanford-le-hope, Thurrock SS17 7JD",Terraced,3.0,https://www.rightmove.co.uk/house-prices/details/england-123333323-16336318?s=fc9cd60322bbe5f7d5ae961607871552239277b68d0a0484e794304b0453e2a4,51.52199,0.44698,0092eefa-80c3-40d4-b752-9dc3eb2d57be,121
122,"35, Elmstead Close, Corringham, Stanford-le-hope, Thurrock SS17 9EL",Semi-Detached,4.0,https://www.rightmove.co.uk/house-prices/details/england-121925327-16026211?s=5baa0e9a5ba9d4ae0c9efe7dc5126af2efe22f1b27338bf0bdfe654318235a0d,51.52976,0.45821,87e88699-d6f6-4c89-8241-d31d1c077673,122
123,"6, Oakwood Road, Corringham, Stanford-le-hope, Thurrock SS17 9AX",Semi-Detached,3.0,https://www.rightmove.co.uk/house-prices/details/england-114007202-16897036?s=7634a1b87b6315e43fade26b5a945d00125fc5acc092d0f9b4c9e4b5b18d815f,51.52855,0.46017,f1e6547e-5e0d-4b90-b570-2a2014628bda,123
124,"46, Tomkins Close, Stanford-le-hope, Thurrock SS17 8QU",Terraced,2.0,https://www.rightmove.co.uk/house-prices/details/england-120104534-16336384?s=8eb78105705a8fcbfee72448484ce00a21f7f4179fe329eb8b5c44da1cf8d860,51.52103,0.42401,5c56f9e9-4704-449f-b1b5-5549f007bf7f,124
