,address,propertyType,bedrooms,detailUrl,location_lat,location_lng,property_id,index
0,"47, Shurland Avenue, Sittingbourne, Kent ME10 4QT",Terraced,3.0,https://www.rightmove.co.uk/house-prices/details/england-124358819-17435395?s=1f69584444897da2489577059e451bca292a1e6a83cb29563ac63352435cbe32,51.32857,0.73455,b6ca9200-3901-4077-9cd9-76930d84b9a6,0
1,"5, Gibson Street, Sittingbourne, Kent ME10 1AY",Terraced,,https://www.rightmove.co.uk/house-prices/details/england-17435158?s=a9f5f9bf5e1983020aeb34c7458f3ba0976232148c9183d96c75a367985da0ea,51.34236,0.72919,d97cc689-c271-4a83-80b4-1b1e40348d86,1
2,"19, Robertson Drive, Sittingbourne, Kent ME10 3GU",Semi-Detached,,https://www.rightmove.co.uk/house-prices/details/england-17435335?s=26a79d280d97e09f539819062a05f29cffcc012a63b36126526b3f306b0371d9,51.34332,0.73844,b86f63ae-1e75-43b3-a373-2a0a07dfa84e,2
3,"7, Galena Close, Sittingbourne, Kent ME10 5GA",Detached,4.0,https://www.rightmove.co.uk/house-prices/details/england-106590683-17758711?s=9cd285f8e35aa95f19de079bab03687f6f9882397da07134b6679c8547b10aa0,51.35144,0.71422,c8771a0b-e8ff-4eb1-82d3-624e2b1d2bbc,3
4,"21, Bluebell Drive, Sittingbourne, Kent ME10 4EL",Semi-Detached,3.0,https://www.rightmove.co.uk/house-prices/details/england-127262114-18061834?s=c5d3800d2d735ebcde26c5b1a893a88a2739c45a438ca2575e3cb16240cb993d,51.32996,0.73664,a291b7d8-8076-4f5f-bcdd-ad911f69fd5f,4
5,"8, Yeates Drive, Kemsley, Sittingbourne, Kent ME10 2UH",Terraced,2.0,https://www.rightmove.co.uk/house-prices/details/england-124381817-17758564?s=68659dc72893a2f380eb7fd3d80e752ff67639c40b1a85c26923ed7c40f50ca8,51.35707,0.74659,1b2f7325-11b8-417d-99e6-32bd5881c7a0,5
6,"37, Clement Close, Milton Regis, Sittingbourne, Kent ME10 2XA",Terraced,2.0,https://www.rightmove.co.uk/house-prices/details/england-124987523-17435272?s=8a2b1e2f56c99e4fe7a526ae6ba694a11411f112bce49e0a2f24366beab850d0,51.35755,0.7334,c2df71eb-311d-4e09-b2f2-13049220a9a0,6
7,"95, Borden Lane, Sittingbourne, Kent ME10 1BX",Detached,5.0,https://www.rightmove.co.uk/house-prices/details/england-125099156-17435173?s=5ecc52b4e67077d8d492b349e04f1f58b8721f7862da84c8c50e5a31e7916694,51.33953,0.71969,9ac13189-85fa-495f-86a7-4317f1e56cae,7
8,"86, Reams Way, Kemsley, Sittingbourne, Kent ME10 2GD",Flat,2.0,https://www.rightmove.co.uk/house-prices/details/england-126130424-18061681?s=a19b106d73c25eff59bdb56a8f558647e21cfb4c5900b8775a38ea0a8cc3cbab,51.36383,0.74584,f0e83f64-2fc6-4aac-b6c0-4ca675ad3e7c,8
9,"26, Moonstone Square, Sittingbourne, Kent ME10 5JN",Semi-Detached,4.0,https://www.rightmove.co.uk/house-prices/details/england-115172570-18061876?s=9b62bde2322a84f67e08cdeb011eef96a2c60fa1fca1deb4b78a10a8ca21d895,51.34984,0.72088,859aa2cb-caf4-4b05-9d17-ea470ff10725,9
10,"21, Palmerston Walk, Sittingbourne, Kent ME10 3BT",Terraced,2.0,https://www.rightmove.co.uk/house-prices/details/england-126480737-17435296?s=aaff8f9d573345df2f47a08766e7a95fda703cc73c952ae5b2607da659468d9f,51.33893,0.76058,72408638-5746-4ce1-af23-b4df52a738f1,10
11,"10, Bond Road, Sittingbourne, Kent ME10 5BL",Semi-Detached,,https://www.rightmove.co.uk/house-prices/details/england-17758708?s=7090c38ca161d7604973a0f61564996bcfb06b84a2f220a90761bde653dbc904,51.34943,0.71166,5085b4ab-4c7c-4940-9bb2-c7f75942c4f8,11
12,"96, Beauvoir Drive, Kemsley, Sittingbourne, Kent ME10 2TN",Terraced,1.0,https://www.rightmove.co.uk/house-prices/details/england-127153688-17758558?s=7cae79ce1c030800eeb5cda72de217e7a7fa084ce362e341a2051d267eeb9a3f,51.35992,0.74374,c572e0ee-293d-4d81-aed6-0f892068e1ee,12
13,"80, Adelaide Drive, Sittingbourne, Kent ME10 1XU",Semi-Detached,3.0,https://www.rightmove.co.uk/house-prices/details/england-124206764-17435224?s=2efc8ef2ed4bd0b914a445b7c089d3ffc47acb4854aa988fd52bff46e14ba228,51.34191,0.71782,e445dfd5-0c5d-4749-a188-85f94969776a,13
14,"14, Cheyne Close, Kemsley, Sittingbourne, Kent ME10 2SQ",Terraced,4.0,https://www.rightmove.co.uk/house-prices/details/england-124566161-17435254?s=6d1dfcf28acd350dbb6cacff8356a9647b17380d3a160b86655ea520dacea290,51.35917,0.7414,6738766d-f247-49ca-a961-cac1fa6e8656,14
15,"96, Albany Road, Sittingbourne, Kent ME10 1EL",Detached,5.0,https://www.rightmove.co.uk/house-prices/details/england-125069759-17758381?s=5697a7dbb47bcc640ad51cf02ffe21b7f149c6bad738afd5a19ab898a23c08b5,51.33664,0.73144,35462cc6-010a-40b8-8c84-cf727b218ce4,15
16,"91, North Street, Sittingbourne, Kent ME10 2HJ",Semi-Detached,2.0,https://www.rightmove.co.uk/house-prices/details/england-123444329-17758480?s=bcae0ed454473a5a3bb5210323acc6ea0dd702464a39d30d207c1ac896fe436a,51.35417,0.73593,5d9d2a79-0883-4276-bd00-532fc709776b,16
17,"12, Nativity Close, Sittingbourne, Kent ME10 1ET",Detached,3.0,https://www.rightmove.co.uk/house-prices/details/england-121856711-17435191?s=62d3425811137a4c8d41a9052ca37bb903de7ede01b18bf01a9d99b5620f69f3,51.33921,0.72944,24e17f81-7b61-4b02-90e2-9f613a31e09a,17
18,"8, Cherryfields, Sittingbourne, Kent ME10 1YP",Semi-Detached,3.0,https://www.rightmove.co.uk/house-prices/details/england-126147650-16815307?s=6b4786ac5f76d9e6c0f5f2dcd885a375b65d5ab11389e5cdb510b0012f7f9578,51.34495,0.70292,e77dc812-c450-49d7-955c-0ed57fca311d,18
19,"95, College Road, Sittingbourne, Kent ME10 1LH",Detached,3.0,https://www.rightmove.co.uk/house-prices/details/england-116760617-18061645?s=d6d23199b20af51150a8a96e109cc454e7d115420ef82828ed7e3020ba7da1f7,51.3344,0.71953,7e84a880-15dd-416d-9c9f-bef97cb6c1a4,19
20,"2, Symonds Drive, Sittingbourne, Kent ME10 3GD",Semi-Detached,,https://www.rightmove.co.uk/house-prices/details/england-17435329?s=7acc7034832e731da28b4a0c32cb0ccb204fc45f3d980d83156b28dcfbb48e8f,51.34403,0.7616,aa4670cc-21bd-4d3c-9b33-688a82a1c5f1,20
21,"31, Beaconsfield Road, Sittingbourne, Kent ME10 3BD",Terraced,2.0,https://www.rightmove.co.uk/house-prices/details/england-124074098-17435290?s=36d812133267f167fafeffe9bcbb839066484c4d35876053cc4dd15f61a7d8bf,51.33778,0.75965,33901dbd-13f4-47f9-8fd6-a541d0aaed29,21
22,"25, Chegworth Gardens, Sittingbourne, Kent ME10 1RJ",Detached,,https://www.rightmove.co.uk/house-prices/details/england-17435215?s=82d0401196ce6204850594ef2a0028994a2819afbaa6f03525aa354c2f7d6b77,51.32687,0.72612,fa5bd8fe-9ac2-44be-ba20-393d640ef94d,22
23,"165, Borden Lane, Sittingbourne, Kent ME10 1DA",Detached,4.0,https://www.rightmove.co.uk/house-prices/details/england-123709682-17435182?s=c82c0989b1febed0631688627ce4f61c2753b9bbc16b45207ee37b767a3d7ae2,51.33745,0.71612,9fad1e27-6887-4d63-874c-7f31d6593ed9,23
24,"11, Brisbane Avenue, Sittingbourne, Kent ME10 1XZ",Semi-Detached,4.0,https://www.rightmove.co.uk/house-prices/details/england-125093756-17435227?s=a48190469f4f4cabc34bd165108ca3001298fb8e174731e5c84c6a0fd54baf46,51.34015,0.71585,6fed61e0-972a-4b2d-b23c-22b42e0ae5e5,24
25,"11, Brisbane Avenue, Sittingbourne, Kent ME10 1XZ",Semi-Detached,4.0,https://www.rightmove.co.uk/house-prices/details/england-125093756-17435227?s=a48190469f4f4cabc34bd165108ca3001298fb8e174731e5c84c6a0fd54baf46,51.34015,0.71585,98f24f4f-d008-48c7-8273-6540ee668c8b,25
26,"8, Crocus Drive, Sittingbourne, Kent ME10 4ES",Terraced,3.0,https://www.rightmove.co.uk/house-prices/details/england-131597363-18061837?s=e2fe3edb55fcf0e9acebd3b72e22d71345ffb0caa0bad3b98ab7dc41debcaf3f,51.32965,0.73834,f508bdd8-9769-497a-824b-64c6568324f4,26
27,"1, Bergamot Close, Sittingbourne, Kent ME10 4EY",Semi-Detached,4.0,https://www.rightmove.co.uk/house-prices/details/england-120107474-17435380?s=626ee363dcad6346040d06ddfe2cf21ccfdc36acfebc1adfbcea52c3410b6c75,51.33057,0.73739,c3c0f710-d8fa-4a61-8884-b55c8c547f3d,27
28,"66, Park Drive, Sittingbourne, Kent ME10 1RD",Detached,,https://www.rightmove.co.uk/house-prices/details/england-17435212?s=d229959ac902cea5ed403101f4bfade32a4336125bb10a91db427d5a4e242626,51.32821,0.72304,00121b0d-b88d-4178-ae33-e125fee6c169,28
29,"30, Hamilton Crescent, Sittingbourne, Kent ME10 1HZ",Semi-Detached,2.0,https://www.rightmove.co.uk/house-prices/details/england-124844792-17435200?s=b364468cd10db5ad4adb77e60e5531569363d9ce23bc0e46b6a167d50ff6f1da,51.33927,0.71522,485e9757-a038-4700-9a7b-c64f2c8ae35e,29
30,"14, Croft Avenue, Sittingbourne, Kent ME10 3FG",Terraced,3.0,https://www.rightmove.co.uk/house-prices/details/england-125195021-17435308?s=f8ef76e9f926595993b9ff773e46969ca985fae52cd4bb24526048a4e4990076,51.34181,0.76032,8b87627b-8205-4094-bfdf-56a80a54178f,30
31,"2, Plummer Crescent, Sittingbourne, Kent ME10 3FH",Terraced,,https://www.rightmove.co.uk/house-prices/details/england-16815409?s=844ccdd657656f3d4d7c03a688231590f32f26fe96762be8f66f26868e4f4285,51.34145,0.76059,d75d16ce-4c8a-4f2d-9bbe-51a0944c69b7,31
32,"12, Satis Avenue, Sittingbourne, Kent ME10 2LF",Semi-Detached,3.0,https://www.rightmove.co.uk/house-prices/details/england-123809180-17758498?s=2faff9dec5c73e22b2e118bbc533f4ba7a9d2e983d7a7a435fbbd21cb4c69916,51.35617,0.73475,38092eee-0a64-4a1b-8cf8-f4e9243ff23f,32
33,"2, Regency Court, Sittingbourne, Kent ME10 1BZ",Semi-Detached,,https://www.rightmove.co.uk/house-prices/details/england-17435176?s=2cf105ee3fd5657ffd9ffebd9da46f1c9a4a54075cd941443f052afaa634984c,51.34312,0.72378,3f9d035e-1944-497e-b127-9d07802f1c42,33
34,"41a, Cowper Road, Sittingbourne, Kent ME10 3AL",Terraced,3.0,https://www.rightmove.co.uk/house-prices/details/england-124724261-17435284?s=16d5bbca02ba828b7b87d7eb8d83bd85a826edf4dacfa142f72738e250514fcd,51.33896,0.75154,0fcee363-84bf-4937-93f1-3f5587a9191b,34
35,"4, Roonagh Court, Sittingbourne, Kent ME10 1QS",Detached,4.0,https://www.rightmove.co.uk/house-prices/details/england-122395598-17758414?s=57d6ae75bb6644647d667442ec412608f2e6883cbb10e791e83b150ae0737197,51.33304,0.72792,ea3a068b-6018-4d43-b9dc-4d5dff88902c,35
36,"4, Redgrove House, Rapson End, Sittingbourne, Kent ME10 3LW",Flat,,https://www.rightmove.co.uk/house-prices/details/england-17758621?s=e7e321ad158e4682e50c488f12e5f1a3bb3e44a3b56297e9e80affc08c68416b,51.34283,0.73999,65af9527-debf-4e68-966f-b9a2850e802c,36
37,"6, Symonds Drive, Sittingbourne, Kent ME10 3GD",Semi-Detached,,https://www.rightmove.co.uk/house-prices/details/england-17435326?s=f28726f297e11a190ffab9469d56ce58d8880e8ab6995cdbcf2a8ec5fb445602,51.34403,0.7616,a3141e78-bcb0-4e6c-b1f6-147dea9959ab,37
38,"63, Onyx Drive, Sittingbourne, Kent ME10 5LG",Flat,1.0,https://www.rightmove.co.uk/house-prices/details/england-123172046-17435413?s=e09fab1c03a83a3c9211f72dd6542259c87d123bf4fba6163fa93b2b6d535d2d,51.35032,0.72363,65e87780-5cbc-43bd-82a3-5a154c9c21f4,38
39,"39, Taillour Close, Kemsley, Sittingbourne, Kent ME10 2SY",Semi-Detached,,https://www.rightmove.co.uk/house-prices/details/england-16815361?s=d4d5556886f6dd463621759ad3074d0695ed1bec41e52c933f04b72882c6489f,51.35626,0.73893,f0a6c2f5-fb4e-4286-a87c-8d5e2aad978c,39
40,"29, Adelaide Drive, Sittingbourne, Kent ME10 1YE",Semi-Detached,3.0,https://www.rightmove.co.uk/house-prices/details/england-41598193-17758441?s=66c622d4384a40b079a6e6186ecbabaae49e126ad9ae7d56b9ceceffa3c11dfd,51.34076,0.71704,784992ab-30ed-4306-9f3c-19464f489329,40
41,"39, Recreation Way, Kemsley, Sittingbourne, Kent ME10 2RD",Semi-Detached,3.0,https://www.rightmove.co.uk/house-prices/details/england-124829993-16815355?s=4e7d36267d3a4d45f6de2eed896a92523aeb1ad4d9fde3c76f4f8a9ecd2fdda1,51.36141,0.74139,355cd632-1bb9-49ae-a783-d837335340c7,41
42,"103, Staplehurst Road, Sittingbourne, Kent ME10 2NN",Semi-Detached,6.0,https://www.rightmove.co.uk/house-prices/details/england-85555152-16815346?s=f5df6e0aa294d9456015951d90aa8f16ac74d8c89c79ec2e2cc830cf29c12d23,51.34639,0.72254,aaa952b8-0e7b-4488-92d3-0d157f6b2dca,42
43,"57, Hugh Price Close, Murston, Sittingbourne, Kent ME10 3AS",Semi-Detached,2.0,https://www.rightmove.co.uk/house-prices/details/england-129555047-16815391?s=aec50a7802a87528a18a361c49756a217c4e8cd58a0bca6ebb760a06141f20f1,51.34533,0.75594,5712ac82-5769-4ce4-85c0-1ef7b1a3a911,43
44,"7, Peridot Walk, Sittingbourne, Kent ME10 5AE",Terraced,,https://www.rightmove.co.uk/house-prices/details/england-17435410?s=e654c1184beeaea0f5d4d14e9da96799d4ab4bf8f6e8709afd2d84e5205e8140,51.35129,0.71651,eb116771-103c-472e-a41b-145f923a34ae,44
45,"157a, Borden Lane, Sittingbourne, Kent ME10 1DA",Semi-Detached,3.0,https://www.rightmove.co.uk/house-prices/details/england-123999668-17435179?s=8c3a62f1e9482c0ad6feb98129d8a8db778a501e83cdcfbe2647f5c2f349f1aa,51.33745,0.71612,03828825-7438-4120-a2de-1dac5b66e642,45
46,"5, Haffenden Avenue, Sittingbourne, Kent ME10 3FQ",Semi-Detached,,https://www.rightmove.co.uk/house-prices/details/england-17758597?s=ea7cfec9c07d63f280f198ee439431b1db68f540e617efa0c64a95ba0cbbd847,51.34084,0.76744,973fa496-bc77-4685-a87a-775fc2c4f843,46
47,"30, Wadham Place, Sittingbourne, Kent ME10 4LZ",Terraced,2.0,https://www.rightmove.co.uk/house-prices/details/england-126090764-16815478?s=b6d0267801f11f8d09759dc2a824de78d896ec21496ab9fea977124b2aa5941c,51.33238,0.74856,16a91c64-9159-4034-a2ce-15acb34449b0,47
48,"13, Vincent Road, Sittingbourne, Kent ME10 3DD",Semi-Detached,3.0,https://www.rightmove.co.uk/house-prices/details/england-125442560-16815400?s=5397e4cc7063b924e35fe2a63c341326f685a2de47f154f181ab5b4afb2e574b,51.33719,0.75818,5a529662-0a93-4bf3-86de-d623da4169eb,48
49,"59, Reams Way, Kemsley, Sittingbourne, Kent ME10 2GD",Semi-Detached,,https://www.rightmove.co.uk/house-prices/details/england-17435245?s=873729e1a47af3200c861b32a99d95d803d4e28ea85f94b79f98b7df5ee0d8bd,51.36383,0.74584,094244ec-2bd5-4cc3-beef-254f5701b143,49
50,"59, Reams Way, Kemsley, Sittingbourne, Kent ME10 2GD",Semi-Detached,,https://www.rightmove.co.uk/house-prices/details/england-17435245?s=873729e1a47af3200c861b32a99d95d803d4e28ea85f94b79f98b7df5ee0d8bd,51.36383,0.74584,3ba8aa60-03f9-4cd2-952d-209c4237896a,50
51,"11, Haffenden Avenue, Sittingbourne, Kent ME10 3FQ",Semi-Detached,,https://www.rightmove.co.uk/house-prices/details/england-17435314?s=b11b5921a30400000a33cf4a04487b9f91ade8cca7aebf6e39d6e3d4a807bfec,51.34084,0.76744,09a12766-8d91-4894-b8e3-94b8f7f1b25d,51
52,"13, Coleman Drive, Kemsley, Sittingbourne, Kent ME10 2EA",Detached,4.0,https://www.rightmove.co.uk/house-prices/details/england-29127032-16815310?s=9a682384a9d6aa6972babf4b2ee3f47ee5db7fc3f48752dc321a825b99e99fc4,51.36118,0.73979,6dd88b56-791f-4f05-bebe-5a59b0c0ab09,52
53,"94, Langley Road, Sittingbourne, Kent ME10 2EN",Semi-Detached,2.0,https://www.rightmove.co.uk/house-prices/details/england-124438556-16815313?s=b32d821ec8d60653d9776b219a92821cd75b80a2989f6ed0cec1fec232f4c155,51.35209,0.73623,6621ca87-3faf-4f73-ae30-eed837d0591f,53
54,"79, Middletune Avenue, Sittingbourne, Kent ME10 2JE",Semi-Detached,5.0,https://www.rightmove.co.uk/house-prices/details/england-85569687-17758486?s=fe819dafb759f6f951a1ec38bdb95c5672152b44346aab496084c1286ce93b46,51.35419,0.72745,0e71598f-edfd-4f42-98ed-517b237bf8a6,54
55,"50a, Charlotte Street, Sittingbourne, Kent ME10 2JN",Flat,1.0,https://www.rightmove.co.uk/house-prices/details/england-85755510-17758489?s=3946708f87fa5bf1e6e0458079dee8caddcf8518c2940be7e4087d2b64776495,51.34514,0.72965,c3a9bbce-49af-43ae-b370-654f541c2aea,55
56,"5, Aubretia Walk, Sittingbourne, Kent ME10 4TL",Terraced,3.0,https://www.rightmove.co.uk/house-prices/details/england-124673303-16815502?s=15bb23f22455226d5bb220711ab7aec7c4ca450919cca901df48315a239e6f90,51.33798,0.74372,87db52f0-4f67-4f1a-a4fc-9a721e4480c8,56
57,"65, Reams Way, Kemsley, Sittingbourne, Kent ME10 2GD",Flat,2.0,https://www.rightmove.co.uk/house-prices/details/england-123072260-17435242?s=0692787eaaa3e911f4f242bf45fe81c3cc17866df425356030595a4423cc8d26,51.36383,0.74584,98d67ba5-fcf4-465e-9f05-9aea20b6b294,57
58,"41, Taillour Close, Kemsley, Sittingbourne, Kent ME10 2SY",Terraced,2.0,https://www.rightmove.co.uk/house-prices/details/england-127107236-17435257?s=f261817e326680cd9d5079c11467cb22ea3167dd0646261dd9c40c034915e0f9,51.35626,0.73893,46c440c1-8b8f-4755-b500-dee5fdced591,58
59,"35, London Road, Sittingbourne, Kent ME10 1NQ",Detached,4.0,https://www.rightmove.co.uk/house-prices/details/england-123050519-16815274?s=d6b34fc151608bbc8c423b941dc7b89ab547e59b095277a907b25a576e31eea2,51.34146,0.72555,eeaa8e6b-8d70-40d1-b15f-884ddb22b298,59
60,"1, Fairleas, Sittingbourne, Kent ME10 4LS",Semi-Detached,3.0,https://www.rightmove.co.uk/house-prices/details/england-128139809-17435383?s=9cb34cbd3ec18a46ed8a429f8acd9119f057aa4a58fdcf604de41068c5634e4e,51.33028,0.75374,d29d4318-4044-4d93-a7b9-ed36d769d366,60
61,"16, Cambria Walk, Sittingbourne, Kent ME10 2FW",Terraced,,https://www.rightmove.co.uk/house-prices/details/england-16815316?s=ace552e76b71999ec884d052640a65c4c6214d208a65a2031b3bfeef5abdd0da,51.34504,0.73007,69e42428-6151-41a9-9001-04367c76c582,61
62,"120, Millfield, Sittingbourne, Kent ME10 4TP",Terraced,3.0,https://www.rightmove.co.uk/house-prices/details/england-125070191-17758696?s=9e167417b3b5c2827141606e773e96a66c60640b515b8c16b945496c908c887f,51.33641,0.74162,e9f0ab1c-054a-464b-8823-47d03dd12c83,62
63,"52, Shakespeare Road, Sittingbourne, Kent ME10 3AB",Terraced,3.0,https://www.rightmove.co.uk/house-prices/details/england-122943311-17435281?s=629fd495ef344783cd7947ad3b93f926f0e1ff0d6465060b5b179131415b7868,51.33925,0.74681,f8f8b0da-8e53-4c89-93a2-e52a15603b4e,63
64,"15, Short Rise, Sittingbourne, Kent ME10 3FU",Terraced,,https://www.rightmove.co.uk/house-prices/details/england-16815415?s=e0e29de14ad565797ac166172cabf9267f0066ba302de71a60695280fa25ed1f,51.34218,0.76767,273a3640-bc82-44ed-9650-daee008667a9,64
65,"12, Prentis Close, Sittingbourne, Kent ME10 1TE",Semi-Detached,3.0,https://www.rightmove.co.uk/house-prices/details/england-123144347-17758426?s=d7b88ca38c10d9ce359e03a94ced47326cc3d153d6c546bd24e7ac35853b263d,51.34393,0.71579,bb7e79ce-10e4-475e-917f-26bda88a5086,65
66,"62, Gayhurst Drive, Sittingbourne, Kent ME10 1UD",Semi-Detached,3.0,https://www.rightmove.co.uk/house-prices/details/england-124689881-16815295?s=9edca2aaace873dccc28d594a17e2f2ca0a7cd1619014d5eb4b455eab1ccb347,51.34653,0.71637,ed5dc44b-bd54-463d-892f-08237cc3785f,66
67,"20, Regency Court, Sittingbourne, Kent ME10 1BZ",Terraced,3.0,https://www.rightmove.co.uk/house-prices/details/england-131704922-16815256?s=d18a473088c632204a827c1263890d9624222ebabc9fd9724db7794b5bd34f05,51.34312,0.72378,dd03afe1-e85d-45e3-b3ff-a2331e78b6d2,67
68,"12, Rosebery Close, Sittingbourne, Kent ME10 3DB",Semi-Detached,2.0,https://www.rightmove.co.uk/house-prices/details/england-121683251-17435299?s=dee4f20bc96f3217891b2389a3f1f229874bd63d27f69fdb58e0611d1cf70850,51.33985,0.76336,446525f0-33bc-4f87-a0e3-e276e7b957e7,68
69,"24, Watling Place, Sittingbourne, Kent ME10 4ST",Semi-Detached,3.0,https://www.rightmove.co.uk/house-prices/details/england-85443678-17435401?s=779d4474ce4067a2312f54e925be2c6e604f2b3c7a4fb3207da5b080ae90ff01,51.33631,0.74592,d180bf23-c450-45e7-97dd-98ed7057b203,69
70,"46, Gayhurst Drive, Sittingbourne, Kent ME10 1UD",Semi-Detached,3.0,https://www.rightmove.co.uk/house-prices/details/england-121630457-16815292?s=8f5091038aeabfce6b8eb2062f132c6e16dc7bf5b6c6d47cc7c954ec7217047e,51.34653,0.71637,cb5c9f58-f3f6-45df-b72a-e9e4c54dda9f,70
71,"2, Napier Close, Sittingbourne, Kent ME10 1RU",Detached,4.0,https://www.rightmove.co.uk/house-prices/details/england-85612905-17100973?s=c159d56e89d2b4cd7c244e22939474a623c430dc495efef6b10696504566ff51,51.33943,0.7161,768cfcf7-2ddd-4d5b-a16f-32c3b6e328b0,71
72,"25, St Johns Avenue, Sittingbourne, Kent ME10 4NE",Semi-Detached,3.0,https://www.rightmove.co.uk/house-prices/details/england-114069731-17101255?s=2ffbd872495d83c14115c6cb83c8d213e97b7c8df1250f3b986e20d61c927027,51.33474,0.75516,9fc0b8cc-d0b3-419d-a7cd-ebfd7994aa06,72
73,"7, Makin Drive, Sittingbourne, Kent ME10 3FJ",Semi-Detached,,https://www.rightmove.co.uk/house-prices/details/england-17101120?s=241b42a94faf3565e9b27b14c995589388a8c48f7b7558fd8ae57fe5fcbfa69c,51.3411,0.76746,8c2f6344-ea7b-4464-b64d-ebd869a0a62f,73
74,"48, Charlotte Street, Sittingbourne, Kent ME10 2JN",Terraced,,https://www.rightmove.co.uk/house-prices/details/england-17101036?s=4c6cc5efee5e83ed10bce4307fab2592c91b82a1018c851ef4dcf1634639bd30,51.34514,0.72965,67d5815e-46fb-442c-b9fc-ed9ae79c7608,74
75,"Flat 5, Bismuth House, Bismuth Drive, Sittingbourne, Kent ME10 5JU",Flat,2.0,https://www.rightmove.co.uk/house-prices/details/england-38901707-16815523?s=3d22218b8cd4b5919ae2a258545dfc78f0d9fe28e6a198abc95c6d77d6e08afa,51.35218,0.72489,8db0a6a3-bf78-40cc-aec8-408010b99392,75
76,"62, Haffenden Avenue, Sittingbourne, Kent ME10 3FR",Detached,,https://www.rightmove.co.uk/house-prices/details/england-17435317?s=63ef4b22fbc7d470aaba4afd4fee441f6c97d59f69b3fd2debd8ce503073df18,51.34056,0.76771,5b643d35-ee3b-40c9-ac8d-739156747f60,76
77,"46, Lywood Drive, Sittingbourne, Kent ME10 2FT",Terraced,,https://www.rightmove.co.uk/house-prices/details/england-17435233?s=1d343f1c4ddf39924cbf31137c4d3ad8638945b7667d6f335fe9d3b3e77c1536,51.34441,0.73003,a4dde96b-83ce-4721-8209-1eaf4c99600a,77
78,"2, Roonagh Court, Sittingbourne, Kent ME10 1QS",Detached,2.0,https://www.rightmove.co.uk/house-prices/details/england-121582013-16815286?s=7ac9fa0ca0fd3ef4229e1db0a64b53922a8dad0ace7cd61b61eac470296fc462,51.33304,0.72792,8f375666-4a69-4c1f-95e9-d11539dd7ad5,78
79,"3, Golden Court, Church Road, Murston, Sittingbourne, Kent ME10 3RT",Terraced,,https://www.rightmove.co.uk/house-prices/details/england-17101231?s=72bed23fec0717bb0a71b5cd0b6f91e1139b87f64f503710752a2d55a5dbf3e8,51.34574,0.7541,d445ad6e-d884-4786-82de-bda1a5513f63,79
80,"8, Lorimar Court, Sittingbourne, Kent ME10 5JD",Detached,4.0,https://www.rightmove.co.uk/house-prices/details/england-120797588-17101294?s=3b296c72f3fa3a50b9a0eb96b6dc2d009f13f0cb3834a8cf59ee63ea9429a1ef,51.35445,0.71612,aea51ab7-1ee8-4683-a93b-df8d6ac5219e,80
81,"6, Amber Rise, Sittingbourne, Kent ME10 5JE",Detached,5.0,https://www.rightmove.co.uk/house-prices/details/england-123624506-17101300?s=09b92c974650fcaeefe58913d999d2b1cca2419790da454c2fdd95506623fc57,51.35363,0.7165,ab8a4998-869d-4f8d-806f-05d9a22ff348,81
82,"27, Goodnestone Road, Sittingbourne, Kent ME10 3AF",Terraced,,https://www.rightmove.co.uk/house-prices/details/england-16815385?s=4084c1028adce60f7ac90ddd8b227864bc9c30bf077e53bc231af5b36f74c6f0,51.33903,0.74867,1631d50b-3547-4a8f-b496-245ba4734969,82
83,"3, Victoria Mews, Sittingbourne, Kent ME10 4BW",Flat,,https://www.rightmove.co.uk/house-prices/details/england-16815472?s=8e47569bf12321f0e9ebf686f61bd952497060a193fe64c8d95b67fc94c7ca98,51.33916,0.74307,64991968-5d9e-4d12-9869-adca6bbc10e3,83
84,"26, Wellwinch Road, Sittingbourne, Kent ME10 1BW",Terraced,2.0,https://www.rightmove.co.uk/house-prices/details/england-123533483-16815253?s=f0fda1aae3299f1f13bb63a7959da7d3af36e2b7dd835c8b91f6f2719329d902,51.34392,0.72412,e90594f6-20ff-4ea2-b7bf-61d4fd0a95e3,84
85,"20, Gregory Close, Kemsley, Sittingbourne, Kent ME10 2UD",Semi-Detached,2.0,https://www.rightmove.co.uk/house-prices/details/england-71523466-17758561?s=20c7e85c8cb19526e14e24d5b78b2c18ada9903780981e84386b9168c0144bbe,51.35679,0.74298,5ec742ff-d122-488b-a3ec-0deb646c7188,85
86,"5, Jacinth Drive, Sittingbourne, Kent ME10 5AP",Terraced,,https://www.rightmove.co.uk/house-prices/details/england-16815511?s=2fc6755877301d93917ce7f77580642cd79c93f7fdd71ee6a7ce39ef7aeedb36,51.35044,0.71818,f46dfb5b-3ad2-4d42-adbe-5dd109a3ef28,86
87,"6, Denbigh Close, Sittingbourne, Kent ME10 2JD",Semi-Detached,3.0,https://www.rightmove.co.uk/house-prices/details/england-123417875-16815334?s=0e99c5e7cac04cd5bcae9d66419253080893e01e45c1cba383a14a77431c71dc,51.35425,0.72846,71384ee2-d54b-4169-9ca0-4dd11c9061f6,87
88,"44, Norwood Walk, Sittingbourne, Kent ME10 1QF",Terraced,3.0,https://www.rightmove.co.uk/house-prices/details/england-120686723-17100964?s=9148568c81c633c5f886e0116bfc5c9097a6b0d1969d53fa0fff29789d282d5f,51.34797,0.71229,6382c068-0571-4579-a4c5-1323529743ec,88
89,"3, Amber Rise, Sittingbourne, Kent ME10 5JE",Detached,4.0,https://www.rightmove.co.uk/house-prices/details/england-85763811-17101297?s=b5737f28312d87807fa455b9810dc58ea4a806505f83608ccf5ff6d1d3917ec9,51.35363,0.7165,130e9b58-a74f-4093-97d2-c46fc551e73a,89
90,"17, Rolvenden Drive, Sittingbourne, Kent ME10 1TR",Semi-Detached,3.0,https://www.rightmove.co.uk/house-prices/details/england-124986485-17435221?s=38e32cdc333d0126b8657879574e59a116e52688814ae3de2e88ddc0735ef120,51.34529,0.71142,abfaa4f6-5a4e-41b1-9ff0-6ce414faed15,90
91,"136, Grovehurst Road, Kemsley, Sittingbourne, Kent ME10 2TA",Semi-Detached,2.0,https://www.rightmove.co.uk/house-prices/details/england-21798728-17101087?s=3b5f3cbdf14c8699b51dd31142aff55be1c8c1f87002e9398bcf5eaf67e03d78,51.36464,0.73411,e2917c70-8d6f-4de8-bb32-c71e773e3099,91
92,"37, Samuel Drive, Kemsley, Sittingbourne, Kent ME10 2GB",Semi-Detached,,https://www.rightmove.co.uk/house-prices/details/england-18061675?s=e74b04f55edf9f908f03def144fe4cdf2a8ba6cdb2f840b09c71b28378e992de,51.36484,0.74504,e5848d9b-ecea-430b-a1b9-f7cf7d769008,92
93,"25, Lily Walk, Sittingbourne, Kent ME10 4BF",Detached,5.0,https://www.rightmove.co.uk/house-prices/details/england-48710157-16815469?s=ef6e8f55e01ed7e2cd3a42e294e18c0079a17991a1b903fa48a241158e1fbb3d,51.32572,0.73696,7de8e411-f819-4628-802c-b7c91bdcf088,93
94,"48, Harrier Drive, Sittingbourne, Kent ME10 4UY",Semi-Detached,2.0,https://www.rightmove.co.uk/house-prices/details/england-122279798-17101273?s=8d3476c11247c14549f8ab7d119984acd91151d9fe96b1106399311959784cb8,51.33271,0.74585,21478cc9-42f6-477f-ba00-5bab337bec9b,94
95,"Flat 22, Riverbourne Court, Bell Road, Sittingbourne, Kent ME10 4DL",Flat,1.0,https://www.rightmove.co.uk/house-prices/details/england-123365315-17435371?s=39a80ca77d4777e3c0b6bfe7929d2333e78934569e2b0a1e78d5ab27f5368aad,51.33859,0.7406,1101e82a-76eb-495c-872b-d62b0ad6844f,95
96,"16, Kent Avenue, Sittingbourne, Kent ME10 1HA",Semi-Detached,3.0,https://www.rightmove.co.uk/house-prices/details/england-124981724-17435197?s=f1b067d52edb21580b54ae7bc80c8691d0333b0a64c9add71406cbd31595bf1d,51.33556,0.72405,b1d2968e-0f92-4c63-b76a-1a2d35e6b5f9,96
97,"19, Haffenden Avenue, Sittingbourne, Kent ME10 3FQ",Terraced,,https://www.rightmove.co.uk/house-prices/details/england-16815412?s=3ae0ac9cb71ceab4fa6300a10920aa871e41295ef0b88cdcdafa073463889283,51.34084,0.76744,295b6536-7fb9-48fb-b590-0a657f86b6a2,97
98,"45, Adelaide Drive, Sittingbourne, Kent ME10 1YE",Detached,3.0,https://www.rightmove.co.uk/house-prices/details/england-125844065-16815304?s=8794d2f7e73f07d002dae4484845af51c69af6ff168ef9f7e9ed4ea44d0b6b88,51.34076,0.71704,4ba8417a-ca1f-4e81-b098-184a592ee722,98
99,"6, Fallowfield, Sittingbourne, Kent ME10 4UT",Semi-Detached,3.0,https://www.rightmove.co.uk/house-prices/details/england-27166949-17101270?s=8a4433fdaa8e00c6919758ef0232c4bfb70f4cabdbae67d90470b5abb4d6643c,51.33251,0.7467,b3e90544-fa7c-4f4e-b4a5-90ae53a9babb,99
100,"62, Eveas Drive, Sittingbourne, Kent ME10 3ER",Terraced,,https://www.rightmove.co.uk/house-prices/details/england-16815406?s=eba494b144e7fb3181c4bbfafbd7db9c413a70b32ed5cd6ac05c3d11733c7723,51.34115,0.76574,0573ccfb-94b1-4990-bf07-1a1a374ed4fd,100
101,"40, Gladstone Drive, Sittingbourne, Kent ME10 3BJ",Terraced,2.0,https://www.rightmove.co.uk/house-prices/details/england-125970689-17101105?s=e5a0cb37f902cfe8d8e3031f64ba0c2a915cb34903aaef39478f3fb165f419f7,51.33827,0.76169,b1f3336c-1327-42b3-8f31-34f7f9ae3504,101
102,"5, Palmerston Walk, Sittingbourne, Kent ME10 3BT",Terraced,2.0,https://www.rightmove.co.uk/house-prices/details/england-125765534-17101108?s=4feb851dc0dafa8963ba1cb363e52c8df46c87ed971d4e8db50ede93a6f5458b,51.33893,0.76058,e52de234-56ad-4cbd-95f2-7b309b06a326,102
103,"Basement Flat, 169a, London Road, Sittingbourne, Kent ME10 1PA",Flat,2.0,https://www.rightmove.co.uk/house-prices/details/england-127612925-16815280?s=d2099910891d5deae3440e5e5baf09f894898c1db77b91ecb7c5e773d19b3899,51.34353,0.71375,f7a23917-8ae4-4aa6-b0b7-c02cd79a666c,103
104,"104, Staplehurst Road, Sittingbourne, Kent ME10 2NW",Terraced,3.0,https://www.rightmove.co.uk/house-prices/details/england-124428263-17101048?s=18b226896f1d75229b39a8bde8e739807d56ba9d9468c21e672840cb9d3935ef,51.34709,0.72301,fa2cbea9-abd5-4e2c-982c-723fde787320,104
105,"48, Key Street, Sittingbourne, Kent ME10 1YU",Terraced,2.0,https://www.rightmove.co.uk/house-prices/details/england-123880991-17100994?s=b52cdded38d0c3341c853a67591ef3e92f78e1246addd83850278e3f07dd9d4b,51.34541,0.70238,0b6b589e-8d47-4d44-8599-95624de58e88,105
106,"3, Hugh Price Close, Murston, Sittingbourne, Kent ME10 3AR",Terraced,2.0,https://www.rightmove.co.uk/house-prices/details/england-85926927-16815388?s=1b3daca82088af2b2dc2f53e66f3ab952593f54cc660d0945ed75a792f30dbc0,51.34606,0.75555,46ed7ffc-0cc1-4707-8a40-a3f9415054fa,106
107,"38, Bayford Road, Sittingbourne, Kent ME10 3AD",Terraced,,https://www.rightmove.co.uk/house-prices/details/england-16815382?s=9bc664c6ba1c11c40b82cce2e2fe006624db8859b031ded418ea9bd674c4af6b,51.33915,0.74753,a8690ac5-c274-4042-be19-b3e193af0fb1,107
108,"7, Gladstone Drive, Sittingbourne, Kent ME10 3BH",Terraced,3.0,https://www.rightmove.co.uk/house-prices/details/england-123369857-17101102?s=78a1e5148b2e8df7369a02129256617f3a182de26f56642d70ec71113489e133,51.33775,0.76108,26a5ff79-6512-4dfa-b826-d8b856a6f3cf,108
109,"3, Haffenden Avenue, Sittingbourne, Kent ME10 3FQ",Semi-Detached,,https://www.rightmove.co.uk/house-prices/details/england-17101123?s=ee9b78e42ecfea31b38b6f4b6fb8ab6453dfc15aa681071efe4eda888ad0816b,51.34084,0.76744,2daff364-fd74-4616-b5cb-6335ed26d133,109
110,"Flat 14, The Turrets, West Lane, Sittingbourne, Kent ME10 3TU",Flat,1.0,https://www.rightmove.co.uk/house-prices/details/england-121679621-17101234?s=eaa8c39bb061dc185c67b116e7511f726812243c0f6788cf1d782d835273a303,51.33948,0.74467,3a7d7aba-6cec-4b71-8159-cc7aa6b5546f,110
111,"7, Hilton Drive, Sittingbourne, Kent ME10 1PU",Terraced,,https://www.rightmove.co.uk/house-prices/details/england-17100958?s=be0005155b00aec8b1dafcfe97b8005c4b8902cb3de33782ebf2e96dc2824de1,51.34871,0.71133,0a132ed6-574c-4893-b59b-5ec236230b1b,111
112,"28, Homeview Terrace, Sittingbourne, Kent ME10 3NF",Terraced,3.0,https://www.rightmove.co.uk/house-prices/details/england-128458043-16815457?s=26604ae77c47ee5478957f25a0b8521350398729676dfa41cd9b25a17f48c412,51.34117,0.75325,7b4198b3-2497-449a-b38d-b5bd81be7557,112
113,"3, Park Villas, Sittingbourne, Kent ME10 1EG",Flat,,https://www.rightmove.co.uk/house-prices/details/england-17100934?s=297edfdffa75515a8e6d2931088f71fb3c543075885a173a92ee3618d9c3be49,51.33776,0.73007,c971c2df-bdef-40d2-af5e-5b67ba4f0600,113
114,"21, Gaze Hill Avenue, Sittingbourne, Kent ME10 4SH",Semi-Detached,3.0,https://www.rightmove.co.uk/house-prices/details/england-124575329-17101261?s=4861528c2570fa7b28d969e28c265b6ddeb902edef8522ce507d757356d2ca22,51.33689,0.74782,2e34330c-28ea-4385-837c-cc07ffc6443b,114
115,"59, Shortlands Road, Sittingbourne, Kent ME10 3JT",Terraced,2.0,https://www.rightmove.co.uk/house-prices/details/england-124359092-17101219?s=b083ac1574ea2f72b02d6b041d5df47622addfbe5cb93f2d3319253cc26e566e,51.34004,0.74787,fae19ad5-5e73-4cc8-9fbd-868e2f759b4a,115
116,"39, Gadby Road, Sittingbourne, Kent ME10 1TJ",Semi-Detached,3.0,https://www.rightmove.co.uk/house-prices/details/england-124361183-17100979?s=cd25e1c8c12132634f2ebaf65bc168546b70472f60f998b41d0de8ef9295ef29,51.34549,0.71473,a034601c-e458-450f-b677-b83646d83e5d,116
117,"72, Haffenden Avenue, Sittingbourne, Kent ME10 3FR",Semi-Detached,,https://www.rightmove.co.uk/house-prices/details/england-17101126?s=0209c661b917bfe0646143a25a5c7e6ce2d446e95dcf99576fb0b28217011a10,51.34056,0.76771,39bcb026-6328-4d62-8778-549bd833c88c,117
118,"71, Chegworth Gardens, Sittingbourne, Kent ME10 1RJ",Semi-Detached,3.0,https://www.rightmove.co.uk/house-prices/details/england-125767784-16815289?s=feb8981bace58c18bcaf59ca7396c5708cec96157554626f9079ca7006955dd6,51.32687,0.72612,20f202e3-9959-4e35-9d3a-70df8cbcec0b,118
119,"3, Ashington Close, Sittingbourne, Kent ME10 1EJ",Terraced,2.0,https://www.rightmove.co.uk/house-prices/details/england-51719439-16538887?s=c42f20ae36ec3d5c19b5be0a0f96bd5fa9d77da2b27e3e64b891191596beb09d,51.34403,0.71953,1041ec1f-4ec0-4f6e-b07b-3ac729b444ef,119
120,"42, Charlotte Street, Sittingbourne, Kent ME10 2JN",Terraced,2.0,https://www.rightmove.co.uk/house-prices/details/england-85663986-17101033?s=bbc57074d8b1b9b186e5ecf1c1353ab8e3ba30d5efd16d7544fce795da31cbc2,51.34514,0.72965,4cdb103a-b887-47a8-872b-87a1b1c599cf,120
121,"30, Crown Road, Sittingbourne, Kent ME10 2AL",Terraced,3.0,https://www.rightmove.co.uk/house-prices/details/england-115759586-17100997?s=ecfa31462c4475320903f630df1c89276b1f02aee298c7c78f3e09cc0e63e2da,51.34825,0.73141,aa936958-8f75-4e1b-aa72-ef44e62316d9,121
122,"19, Yeates Drive, Kemsley, Sittingbourne, Kent ME10 2UH",Terraced,2.0,https://www.rightmove.co.uk/house-prices/details/england-122620388-17101093?s=3f4d7e65d10d413ba23ca9ebaf3ae15ba9b05834a5f7c415e0a8498b1da2c734,51.35707,0.74659,f17f53b9-c6ae-428b-869d-59522b1b7cb4,122
123,"3, Honeysuckle Court, Sittingbourne, Kent ME10 3QP",Terraced,3.0,https://www.rightmove.co.uk/house-prices/details/england-85597992-16539067?s=03708f636a5470d731cb8c30020d0872f38b4706870bc9115e46df4da1d59c8f,51.34482,0.75476,224d3b89-5104-42d2-a4a5-3bf260d87511,123
124,"24, The Fairway, Sittingbourne, Kent ME10 4RA",Detached,3.0,https://www.rightmove.co.uk/house-prices/details/england-120696749-17101258?s=6069bf2d1f5342002c5231ffec8dde8bf359163181309c00a2c9e61fa1c6b595,51.32917,0.73185,2a634000-b690-4ef6-83c1-017743c3585e,124
